[
  {
    "id": "gangnam-01",
    "name": "강남구민회관 공영주차장",
    "district": "강남구",
    "address": "서울특별시 강남구 학동로 426",
    "lat": 37.517,
    "lng": 127.0475,
    "operationHours": "24시간",
    "fee": "10분당 500원",
    "totalSpaces": 120,
    "availableSpaces": 78,
    "updatedAt": "2026-07-05T09:02:00+09:00"
  },
  {
    "id": "gangnam-02",
    "name": "도곡 공영주차장",
    "district": "강남구",
    "address": "서울특별시 강남구 도곡로 156",
    "lat": 37.4909,
    "lng": 127.0552,
    "operationHours": "06:00~24:00",
    "fee": "10분당 400원",
    "totalSpaces": 80,
    "availableSpaces": 40,
    "updatedAt": "2026-07-05T09:05:00+09:00"
  },
  {
    "id": "gangnam-03",
    "name": "개포 공영주차장",
    "district": "강남구",
    "address": "서울특별시 강남구 개포로 623",
    "lat": 37.4874,
    "lng": 127.0637,
    "operationHours": "24시간",
    "fee": "10분당 400원",
    "totalSpaces": 60,
    "availableSpaces": 10,
    "updatedAt": "2026-07-05T08:58:00+09:00"
  },
  {
    "id": "gangnam-04",
    "name": "대치 공영주차장",
    "district": "강남구",
    "address": "서울특별시 강남구 대치로 12",
    "lat": 37.4943,
    "lng": 127.0632,
    "operationHours": "09:00~22:00",
    "fee": "10분당 500원",
    "totalSpaces": 45,
    "availableSpaces": 0,
    "updatedAt": "2026-07-05T09:10:00+09:00"
  },
  {
    "id": "gangnam-05",
    "name": "세곡 공영주차장",
    "district": "강남구",
    "address": "서울특별시 강남구 헌릉로569길 20",
    "lat": 37.4686,
    "lng": 127.0989,
    "operationHours": "24시간",
    "fee": "10분당 300원",
    "totalSpaces": 90,
    "availableSpaces": 65,
    "updatedAt": "2026-07-05T08:47:00+09:00"
  },
  {
    "id": "gangnam-06",
    "name": "압구정로데오 공영주차장",
    "district": "강남구",
    "address": "서울특별시 강남구 논현로175길 87",
    "lat": 37.5273,
    "lng": 127.0402,
    "operationHours": "09:00~24:00",
    "fee": "10분당 600원",
    "totalSpaces": 70,
    "availableSpaces": 22,
    "updatedAt": "2026-07-05T09:12:00+09:00"
  },
  {
    "id": "gangnam-07",
    "name": "신사 공영주차장",
    "district": "강남구",
    "address": "서울특별시 강남구 도산대로1길 32",
    "lat": 37.5163,
    "lng": 127.0212,
    "operationHours": "24시간",
    "fee": "10분당 500원",
    "totalSpaces": 55,
    "availableSpaces": 5,
    "updatedAt": "2026-07-05T09:00:00+09:00"
  },
  {
    "id": "jongno-01",
    "name": "종로구청 공영주차장",
    "district": "종로구",
    "address": "서울특별시 종로구 종로1길 36",
    "lat": 37.5735,
    "lng": 126.9788,
    "operationHours": "09:00~22:00",
    "fee": "10분당 500원",
    "totalSpaces": 100,
    "availableSpaces": 62,
    "updatedAt": "2026-07-05T09:08:00+09:00"
  },
  {
    "id": "jongno-02",
    "name": "창신 공영주차장",
    "district": "종로구",
    "address": "서울특별시 종로구 창신길 75",
    "lat": 37.5745,
    "lng": 127.0157,
    "operationHours": "24시간",
    "fee": "10분당 400원",
    "totalSpaces": 65,
    "availableSpaces": 30,
    "updatedAt": "2026-07-05T08:55:00+09:00"
  },
  {
    "id": "jongno-03",
    "name": "숭인 공영주차장",
    "district": "종로구",
    "address": "서울특별시 종로구 숭인동길 23",
    "lat": 37.5776,
    "lng": 127.0181,
    "operationHours": "24시간",
    "fee": "10분당 400원",
    "totalSpaces": 50,
    "availableSpaces": 8,
    "updatedAt": "2026-07-05T09:03:00+09:00"
  },
  {
    "id": "jongno-04",
    "name": "부암 공영주차장",
    "district": "종로구",
    "address": "서울특별시 종로구 창의문로 136",
    "lat": 37.5952,
    "lng": 126.9646,
    "operationHours": "06:00~24:00",
    "fee": "10분당 300원",
    "totalSpaces": 40,
    "availableSpaces": 0,
    "updatedAt": "2026-07-05T08:40:00+09:00"
  },
  {
    "id": "jongno-05",
    "name": "사직 공영주차장",
    "district": "종로구",
    "address": "서울특별시 종로구 사직로9길 15",
    "lat": 37.5758,
    "lng": 126.9682,
    "operationHours": "24시간",
    "fee": "10분당 500원",
    "totalSpaces": 85,
    "availableSpaces": 55,
    "updatedAt": "2026-07-05T09:14:00+09:00"
  },
  {
    "id": "jongno-06",
    "name": "이화동 공영주차장",
    "district": "종로구",
    "address": "서울특별시 종로구 이화장길 70",
    "lat": 37.5757,
    "lng": 126.9995,
    "operationHours": "09:00~21:00",
    "fee": "10분당 400원",
    "totalSpaces": 35,
    "availableSpaces": 12,
    "updatedAt": "2026-07-05T08:50:00+09:00"
  },
  {
    "id": "jongno-07",
    "name": "원남 공영주차장",
    "district": "종로구",
    "address": "서울특별시 종로구 율곡로 155",
    "lat": 37.5747,
    "lng": 126.9945,
    "operationHours": "24시간",
    "fee": "10분당 500원",
    "totalSpaces": 58,
    "availableSpaces": 3,
    "updatedAt": "2026-07-05T09:06:00+09:00"
  },
  {
    "id": "junggu-01",
    "name": "명동 공영주차장",
    "district": "중구",
    "address": "서울특별시 중구 명동8나길 27",
    "lat": 37.5636,
    "lng": 126.9834,
    "operationHours": "24시간",
    "fee": "10분당 600원",
    "totalSpaces": 130,
    "availableSpaces": 20,
    "updatedAt": "2026-07-05T09:11:00+09:00"
  },
  {
    "id": "junggu-02",
    "name": "만리동 공영주차장",
    "district": "중구",
    "address": "서울특별시 중구 만리재로 42",
    "lat": 37.5551,
    "lng": 126.9686,
    "operationHours": "09:00~22:00",
    "fee": "10분당 400원",
    "totalSpaces": 60,
    "availableSpaces": 45,
    "updatedAt": "2026-07-05T08:52:00+09:00"
  },
  {
    "id": "junggu-03",
    "name": "중림동 공영주차장",
    "district": "중구",
    "address": "서울특별시 중구 중림로 51",
    "lat": 37.5595,
    "lng": 126.967,
    "operationHours": "24시간",
    "fee": "10분당 400원",
    "totalSpaces": 48,
    "availableSpaces": 22,
    "updatedAt": "2026-07-05T09:01:00+09:00"
  },
  {
    "id": "junggu-04",
    "name": "회현 공영주차장",
    "district": "중구",
    "address": "서울특별시 중구 소파로 89",
    "lat": 37.5586,
    "lng": 126.9784,
    "operationHours": "24시간",
    "fee": "10분당 500원",
    "totalSpaces": 72,
    "availableSpaces": 0,
    "updatedAt": "2026-07-05T08:44:00+09:00"
  },
  {
    "id": "junggu-05",
    "name": "신당 공영주차장",
    "district": "중구",
    "address": "서울특별시 중구 다산로 210",
    "lat": 37.5654,
    "lng": 127.0139,
    "operationHours": "06:00~24:00",
    "fee": "10분당 400원",
    "totalSpaces": 66,
    "availableSpaces": 9,
    "updatedAt": "2026-07-05T09:09:00+09:00"
  },
  {
    "id": "junggu-06",
    "name": "광희동 공영주차장",
    "district": "중구",
    "address": "서울특별시 중구 마장로 3",
    "lat": 37.5652,
    "lng": 127.0075,
    "operationHours": "24시간",
    "fee": "10분당 500원",
    "totalSpaces": 54,
    "availableSpaces": 33,
    "updatedAt": "2026-07-05T08:57:00+09:00"
  },
  {
    "id": "seongdong-01",
    "name": "성수 공영주차장",
    "district": "성동구",
    "address": "서울특별시 성동구 성수이로 89",
    "lat": 37.5445,
    "lng": 127.0559,
    "operationHours": "24시간",
    "fee": "10분당 400원",
    "totalSpaces": 95,
    "availableSpaces": 51,
    "updatedAt": "2026-07-05T09:13:00+09:00"
  },
  {
    "id": "seongdong-02",
    "name": "금호 공영주차장",
    "district": "성동구",
    "address": "서울특별시 성동구 금호로 100",
    "lat": 37.5476,
    "lng": 127.0189,
    "operationHours": "09:00~22:00",
    "fee": "10분당 300원",
    "totalSpaces": 40,
    "availableSpaces": 27,
    "updatedAt": "2026-07-05T08:48:00+09:00"
  },
  {
    "id": "seongdong-03",
    "name": "옥수 공영주차장",
    "district": "성동구",
    "address": "서울특별시 성동구 독서당로 379",
    "lat": 37.541,
    "lng": 127.0176,
    "operationHours": "24시간",
    "fee": "10분당 400원",
    "totalSpaces": 50,
    "availableSpaces": 6,
    "updatedAt": "2026-07-05T09:04:00+09:00"
  },
  {
    "id": "seongdong-04",
    "name": "행당 공영주차장",
    "district": "성동구",
    "address": "서울특별시 성동구 행당로 76",
    "lat": 37.5566,
    "lng": 127.0316,
    "operationHours": "24시간",
    "fee": "10분당 400원",
    "totalSpaces": 62,
    "availableSpaces": 0,
    "updatedAt": "2026-07-05T08:41:00+09:00"
  },
  {
    "id": "seongdong-05",
    "name": "응봉 공영주차장",
    "district": "성동구",
    "address": "서울특별시 성동구 응봉로 84",
    "lat": 37.5502,
    "lng": 127.0325,
    "operationHours": "06:00~24:00",
    "fee": "10분당 300원",
    "totalSpaces": 38,
    "availableSpaces": 25,
    "updatedAt": "2026-07-05T09:07:00+09:00"
  },
  {
    "id": "seongdong-06",
    "name": "왕십리 공영주차장",
    "district": "성동구",
    "address": "서울특별시 성동구 왕십리로 407",
    "lat": 37.5651,
    "lng": 127.0295,
    "operationHours": "24시간",
    "fee": "10분당 500원",
    "totalSpaces": 88,
    "availableSpaces": 34,
    "updatedAt": "2026-07-05T08:53:00+09:00"
  }
]
