[
    {
        "id": "dj-0001",
        "name": "NJ타워 주차장",
        "district": "서구",
        "address": "대전광역시 서구 대덕대로216",
        "lat": 36.35195389,
        "lng": 127.37948831,
        "operationHours": "06:00~01:00",
        "fee": "기본 30분 2000원 / 추가 30분당 2000원",
        "totalSpaces": 229,
        "availableSpaces": 86,
        "updatedAt": "2026-07-06T14:20:00+09:00",
        "type": "offStreet"
    },
    {
        "id": "dj-0002",
        "name": "대전천변 노외공영주차장",
        "district": "동구",
        "address": "대전광역시 동구 중동 51-16",
        "lat": 36.332196,
        "lng": 127.4280632,
        "operationHours": "09:00~19:00",
        "fee": "기본 10분 300원 / 추가 10분당 1000원",
        "totalSpaces": 29,
        "availableSpaces": 3,
        "updatedAt": "2026-07-06T14:20:00+09:00",
        "type": "offStreet"
    },
    {
        "id": "dj-0003",
        "name": "동춘당생애길 제1공영주차장",
        "district": "대덕구",
        "address": "대전광역시 대덕구 중리동 507-1",
        "lat": 36.3614932,
        "lng": 127.4328709,
        "operationHours": "24시간",
        "fee": "기본 10분 150원 / 추가 10분당 150원",
        "totalSpaces": 62,
        "availableSpaces": 12,
        "updatedAt": "2026-07-06T14:20:00+09:00",
        "type": "offStreet"
    },
    {
        "id": "dj-0004",
        "name": "문창시장1공영주차장",
        "district": "중구",
        "address": "대전광역시 중구 문창동 122-9",
        "lat": 36.315602,
        "lng": 127.4361286,
        "operationHours": "09:00~21:00",
        "fee": "기본 5분 100원 / 추가 10분당 100원",
        "totalSpaces": 93,
        "availableSpaces": 14,
        "updatedAt": "2026-07-06T14:20:00+09:00",
        "type": "offStreet"
    },
    {
        "id": "dj-0005",
        "name": "문창시장2공영주차장",
        "district": "중구",
        "address": "대전광역시 중구 부사동 126-2",
        "lat": 36.3154999,
        "lng": 127.4339667,
        "operationHours": "09:00~21:00",
        "fee": "기본 5분 100원 / 추가 10분당 100원",
        "totalSpaces": 35,
        "availableSpaces": 4,
        "updatedAt": "2026-07-06T14:20:00+09:00",
        "type": "offStreet"
    },
    {
        "id": "dj-0006",
        "name": "석봉동 공영주차장",
        "district": "대덕구",
        "address": "대전광역시 대덕구 석봉동 189-24",
        "lat": 36.4481085,
        "lng": 127.4256656,
        "operationHours": "09:00~19:00",
        "fee": "무료",
        "totalSpaces": 31,
        "availableSpaces": 4,
        "updatedAt": "2026-07-06T14:20:00+09:00",
        "type": "offStreet"
    },
    {
        "id": "dj-0007",
        "name": "선화동제5노외",
        "district": "중구",
        "address": "대전광역시 중구 선화동 383",
        "lat": 36.3280749,
        "lng": 127.4174749,
        "operationHours": "09:00~19:00",
        "fee": "기본 10분 300원 / 추가 15분당 300원",
        "totalSpaces": 33,
        "availableSpaces": 23,
        "updatedAt": "2026-07-06T14:20:00+09:00",
        "type": "offStreet"
    },
    {
        "id": "dj-0008",
        "name": "송촌공영주차장",
        "district": "대덕구",
        "address": "대전광역시 대덕구 송촌동 478-1",
        "lat": 36.3638045,
        "lng": 127.4404304,
        "operationHours": "24시간",
        "fee": "기본 10분 100원 / 추가 10분당 100원",
        "totalSpaces": 93,
        "availableSpaces": 77,
        "updatedAt": "2026-07-06T14:20:00+09:00",
        "type": "offStreet"
    },
    {
        "id": "dj-0009",
        "name": "송촌소리 공영주차장",
        "district": "대덕구",
        "address": "대전광역시 대덕구 송촌동 448-1",
        "lat": 36.3669033,
        "lng": 127.4362728,
        "operationHours": "24시간",
        "fee": "무료",
        "totalSpaces": 20,
        "availableSpaces": 20,
        "updatedAt": "2026-07-06T14:20:00+09:00",
        "type": "offStreet"
    },
    {
        "id": "dj-0010",
        "name": "신탄진역 앞 공영주차장",
        "district": "대덕구",
        "address": "대전광역시 대덕구 신탄진동 140-25",
        "lat": 36.4502389,
        "lng": 127.430009,
        "operationHours": "24시간",
        "fee": "기본 10분 150원 / 추가 10분당 150원",
        "totalSpaces": 75,
        "availableSpaces": 12,
        "updatedAt": "2026-07-06T14:20:00+09:00",
        "type": "offStreet"
    },
    {
        "id": "dj-0011",
        "name": "월평1동 공영주차장",
        "district": "서구",
        "address": "대전광역시 서구 월평동 513",
        "lat": 36.35646783,
        "lng": 127.3628056,
        "operationHours": "08:00~22:00",
        "fee": "기본 10분 400원 / 추가 10분당 300원",
        "totalSpaces": 150,
        "availableSpaces": 114,
        "updatedAt": "2026-07-06T14:20:00+09:00",
        "type": "offStreet"
    },
    {
        "id": "dj-0012",
        "name": "중리시장 제1주차장",
        "district": "대덕구",
        "address": "대전광역시 대덕구 중리동 372-30",
        "lat": 36.365399,
        "lng": 127.4264062,
        "operationHours": "09:00~19:00",
        "fee": "기본 10분 100원 / 추가 10분당 100원",
        "totalSpaces": 15,
        "availableSpaces": 7,
        "updatedAt": "2026-07-06T14:20:00+09:00",
        "type": "offStreet"
    },
    {
        "id": "dj-0013",
        "name": "중리시장 제2주차장",
        "district": "대덕구",
        "address": "대전광역시 대덕구 중리동 386-3",
        "lat": 36.3636789,
        "lng": 127.4264801,
        "operationHours": "09:00~19:00",
        "fee": "기본 10분 100원 / 추가 10분당 100원",
        "totalSpaces": 24,
        "availableSpaces": 1,
        "updatedAt": "2026-07-06T14:20:00+09:00",
        "type": "offStreet"
    }
]
