[
    {
        "id": "dj-0001",
        "name": "NJ타워 주차장",
        "district": "서구",
        "address": "대전광역시 서구 대덕대로216",
        "lat": 36.35195389,
        "lng": 127.37948831,
        "operationHours": "06:00~01:00",
        "fee": "기본 30분 2000원 / 추가 30분당 2000원",
        "totalSpaces": 229,
        "availableSpaces": 86,
        "updatedAt": "2026-07-06T14:20:00+09:00",
        "type": "offStreet"
    },
    {
        "id": "dj-0002",
        "name": "대전천변 노외공영주차장",
        "district": "동구",
        "address": "대전광역시 동구 중동 51-16",
        "lat": 36.332196,
        "lng": 127.4280632,
        "operationHours": "09:00~19:00",
        "fee": "기본 10분 300원 / 추가 10분당 1000원",
        "totalSpaces": 29,
        "availableSpaces": 3,
        "updatedAt": "2026-07-06T14:20:00+09:00",
        "type": "offStreet"
    },
    {
        "id": "dj-0003",
        "name": "동춘당생애길 제1공영주차장",
        "district": "대덕구",
        "address": "대전광역시 대덕구 중리동 507-1",
        "lat": 36.3614932,
        "lng": 127.4328709,
        "operationHours": "24시간",
        "fee": "기본 10분 150원 / 추가 10분당 150원",
        "totalSpaces": 62,
        "availableSpaces": 12,
        "updatedAt": "2026-07-06T14:20:00+09:00",
        "type": "offStreet"
    },
    {
        "id": "dj-0004",
        "name": "문창시장1공영주차장",
        "district": "중구",
        "address": "대전광역시 중구 문창동 122-9",
        "lat": 36.315602,
        "lng": 127.4361286,
        "operationHours": "09:00~21:00",
        "fee": "기본 5분 100원 / 추가 10분당 100원",
        "totalSpaces": 93,
        "availableSpaces": 14,
        "updatedAt": "2026-07-06T14:20:00+09:00",
        "type": "offStreet"
    },
    {
        "id": "dj-0005",
        "name": "문창시장2공영주차장",
        "district": "중구",
        "address": "대전광역시 중구 부사동 126-2",
        "lat": 36.3154999,
        "lng": 127.4339667,
        "operationHours": "09:00~21:00",
        "fee": "기본 5분 100원 / 추가 10분당 100원",
        "totalSpaces": 35,
        "availableSpaces": 4,
        "updatedAt": "2026-07-06T14:20:00+09:00",
        "type": "offStreet"
    },
    {
        "id": "dj-0006",
        "name": "석봉동 공영주차장",
        "district": "대덕구",
        "address": "대전광역시 대덕구 석봉동 189-24",
        "lat": 36.4481085,
        "lng": 127.4256656,
        "operationHours": "09:00~19:00",
        "fee": "무료",
        "totalSpaces": 31,
        "availableSpaces": 4,
        "updatedAt": "2026-07-06T14:20:00+09:00",
        "type": "offStreet"
    },
    {
        "id": "dj-0007",
        "name": "선화동제5노외",
        "district": "중구",
        "address": "대전광역시 중구 선화동 383",
        "lat": 36.3280749,
        "lng": 127.4174749,
        "operationHours": "09:00~19:00",
        "fee": "기본 10분 300원 / 추가 15분당 300원",
        "totalSpaces": 33,
        "availableSpaces": 23,
        "updatedAt": "2026-07-06T14:20:00+09:00",
        "type": "offStreet"
    },
    {
        "id": "dj-0008",
        "name": "송촌공영주차장",
        "district": "대덕구",
        "address": "대전광역시 대덕구 송촌동 478-1",
        "lat": 36.3638045,
        "lng": 127.4404304,
        "operationHours": "24시간",
        "fee": "기본 10분 100원 / 추가 10분당 100원",
        "totalSpaces": 93,
        "availableSpaces": 77,
        "updatedAt": "2026-07-06T14:20:00+09:00",
        "type": "offStreet"
    },
    {
        "id": "dj-0009",
        "name": "송촌소리 공영주차장",
        "district": "대덕구",
        "address": "대전광역시 대덕구 송촌동 448-1",
        "lat": 36.3669033,
        "lng": 127.4362728,
        "operationHours": "24시간",
        "fee": "무료",
        "totalSpaces": 20,
        "availableSpaces": 20,
        "updatedAt": "2026-07-06T14:20:00+09:00",
        "type": "offStreet"
    },
    {
        "id": "dj-0010",
        "name": "신탄진역 앞 공영주차장",
        "district": "대덕구",
        "address": "대전광역시 대덕구 신탄진동 140-25",
        "lat": 36.4502389,
        "lng": 127.430009,
        "operationHours": "24시간",
        "fee": "기본 10분 150원 / 추가 10분당 150원",
        "totalSpaces": 75,
        "availableSpaces": 12,
        "updatedAt": "2026-07-06T14:20:00+09:00",
        "type": "offStreet"
    },
    {
        "id": "dj-0011",
        "name": "월평1동 공영주차장",
        "district": "서구",
        "address": "대전광역시 서구 월평동 513",
        "lat": 36.35646783,
        "lng": 127.3628056,
        "operationHours": "08:00~22:00",
        "fee": "기본 10분 400원 / 추가 10분당 300원",
        "totalSpaces": 150,
        "availableSpaces": 114,
        "updatedAt": "2026-07-06T14:20:00+09:00",
        "type": "offStreet"
    },
    {
        "id": "dj-0012",
        "name": "중리시장 제1주차장",
        "district": "대덕구",
        "address": "대전광역시 대덕구 중리동 372-30",
        "lat": 36.365399,
        "lng": 127.4264062,
        "operationHours": "09:00~19:00",
        "fee": "기본 10분 100원 / 추가 10분당 100원",
        "totalSpaces": 15,
        "availableSpaces": 7,
        "updatedAt": "2026-07-06T14:20:00+09:00",
        "type": "offStreet"
    },
    {
        "id": "dj-0013",
        "name": "중리시장 제2주차장",
        "district": "대덕구",
        "address": "대전광역시 대덕구 중리동 386-3",
        "lat": 36.3636789,
        "lng": 127.4264801,
        "operationHours": "09:00~19:00",
        "fee": "기본 10분 100원 / 추가 10분당 100원",
        "totalSpaces": 24,
        "availableSpaces": 1,
        "updatedAt": "2026-07-06T14:20:00+09:00",
        "type": "offStreet"
    },
    {
        "id": "gn-0001",
        "name": "성내동광장주차장",
        "district": "강릉시",
        "address": "강원특별자치도 강릉시 성남동 114-3",
        "lat": 37.7513261,
        "lng": 128.8948841,
        "operationHours": "08:00~23:00",
        "fee": "요금 정보 없음",
        "totalSpaces": 48,
        "availableSpaces": 0,
        "updatedAt": "2026-07-06T15:30:00+09:00",
        "type": "offStreet"
    },
    {
        "id": "gn-0002",
        "name": "강문제2공영주차장",
        "district": "강릉시",
        "address": "강원특별자치도 강릉시 강문동 239-1",
        "lat": 37.7961674,
        "lng": 128.9160675,
        "operationHours": "10:00~19:00",
        "fee": "요금 정보 없음",
        "totalSpaces": 91,
        "availableSpaces": 49,
        "updatedAt": "2026-07-06T15:30:00+09:00",
        "type": "offStreet"
    },
    {
        "id": "gn-0003",
        "name": "주문진해안주차타워",
        "district": "강릉시",
        "address": "강원특별자치도 강릉시 주문진읍 해안로 1740",
        "lat": 37.890492,
        "lng": 128.828811,
        "operationHours": "08:00~23:00",
        "fee": "요금 정보 없음",
        "totalSpaces": 230,
        "availableSpaces": 0,
        "updatedAt": "2026-07-06T15:30:00+09:00",
        "type": "offStreet"
    },
    {
        "id": "gn-0004",
        "name": "중앙시장제1공영주차장",
        "district": "강릉시",
        "address": "강원특별자치도 강릉시 성남동 3-6",
        "lat": 37.752271,
        "lng": 128.89957,
        "operationHours": "10:00~19:00",
        "fee": "요금 정보 없음",
        "totalSpaces": 188,
        "availableSpaces": 0,
        "updatedAt": "2026-07-06T15:30:00+09:00",
        "type": "offStreet"
    },
    {
        "id": "gn-0005",
        "name": "중앙시장제2공영주차장",
        "district": "강릉시",
        "address": "강원특별자치도 강릉시 금성로9(성남동 40-4)",
        "lat": 37.7545208,
        "lng": 128.8994119,
        "operationHours": "09:00~21:00",
        "fee": "요금 정보 없음",
        "totalSpaces": 62,
        "availableSpaces": 37,
        "updatedAt": "2026-07-06T15:30:00+09:00",
        "type": "offStreet"
    },
    {
        "id": "gn-0006",
        "name": "강문제1공영주차장",
        "district": "강릉시",
        "address": "강원특별자치도 강릉시 강문동 223-1",
        "lat": 37.7957025,
        "lng": 128.9180063,
        "operationHours": "10:00~19:00",
        "fee": "요금 정보 없음",
        "totalSpaces": 170,
        "availableSpaces": 170,
        "updatedAt": "2026-07-06T15:30:00+09:00",
        "type": "offStreet"
    },
    {
        "id": "gn-0007",
        "name": "도심공영주차장",
        "district": "강릉시",
        "address": "강원특별자치도 강릉시 성남동 19-2",
        "lat": 37.7542056,
        "lng": 128.9018437,
        "operationHours": "10:00~19:00",
        "fee": "요금 정보 없음",
        "totalSpaces": 38,
        "availableSpaces": 17,
        "updatedAt": "2026-07-06T15:30:00+09:00",
        "type": "offStreet"
    },
    {
        "id": "gn-0008",
        "name": "아르떼뮤지엄",
        "district": "강릉시",
        "address": "강원특별자치도 강릉시 난설헌로 131",
        "lat": 37.791389,
        "lng": 128.907348,
        "operationHours": "00:00~23:00",
        "fee": "요금 정보 없음",
        "totalSpaces": 94,
        "availableSpaces": 72,
        "updatedAt": "2026-07-06T15:30:00+09:00",
        "type": "offStreet"
    },
    {
        "id": "gn-0009",
        "name": "녹색체험센터",
        "district": "강릉시",
        "address": "강원특별자치도 강릉시 난설헌로 131",
        "lat": 37.789118,
        "lng": 128.906992,
        "operationHours": "00:00~23:00",
        "fee": "요금 정보 없음",
        "totalSpaces": 100,
        "availableSpaces": 0,
        "updatedAt": "2026-07-06T15:30:00+09:00",
        "type": "offStreet"
    },
    {
        "id": "gn-0010",
        "name": "강릉역",
        "district": "강릉시",
        "address": "강원특별자치도 강릉시 교동 118-2",
        "lat": 37.7623954,
        "lng": 128.8976185,
        "operationHours": "00:00~23:00",
        "fee": "요금 정보 없음",
        "totalSpaces": 410,
        "availableSpaces": 0,
        "updatedAt": "2026-07-06T15:30:00+09:00",
        "type": "offStreet"
    },
    {
        "id": "gn-0011",
        "name": "경포아쿠아리움공영주차장",
        "district": "강릉시",
        "address": "강원특별자치도 강릉시 난설헌로 131",
        "lat": 37.790669,
        "lng": 128.905731,
        "operationHours": "00:00~23:00",
        "fee": "요금 정보 없음",
        "totalSpaces": 68,
        "availableSpaces": 31,
        "updatedAt": "2026-07-06T15:30:00+09:00",
        "type": "offStreet"
    },
    {
        "id": "gn-0012",
        "name": "중앙시장제3공영주차장",
        "district": "강릉시",
        "address": "강원특별자치도 강릉시 중앙동 45-46",
        "lat": 37.754066,
        "lng": 128.89971,
        "operationHours": "10:00~19:00",
        "fee": "요금 정보 없음",
        "totalSpaces": 32,
        "availableSpaces": 32,
        "updatedAt": "2026-07-06T15:30:00+09:00",
        "type": "offStreet"
    },
    {
        "id": "gn-0013",
        "name": "동부시장공영주차장",
        "district": "강릉시",
        "address": "강원특별자치도 강릉시 옥천동 224외 1필지",
        "lat": 37.759492,
        "lng": 128.901795,
        "operationHours": "10:00~19:00",
        "fee": "요금 정보 없음",
        "totalSpaces": 133,
        "availableSpaces": 133,
        "updatedAt": "2026-07-06T15:30:00+09:00",
        "type": "offStreet"
    },
    {
        "id": "sel-0001",
        "name": "구로디지털단지역 공영주차장",
        "district": "구로구",
        "address": "서울특별시 구로구 구로동 810-3",
        "lat": 37.48543179,
        "lng": 126.90124331,
        "operationHours": "24시간",
        "fee": "기본 5분 320원 / 추가 5분당 320원",
        "totalSpaces": 91,
        "availableSpaces": 63,
        "updatedAt": "2026-07-06T15:48:54+09:00",
        "type": "offStreet"
    },
    {
        "id": "sel-0002",
        "name": "구파발역 공영주차장",
        "district": "은평구",
        "address": "서울특별시 은평구 진관동 70-1",
        "lat": 37.638209,
        "lng": 126.918987,
        "operationHours": "24시간",
        "fee": "기본 5분 240원 / 추가 5분당 240원",
        "totalSpaces": 399,
        "availableSpaces": 0,
        "updatedAt": "2026-07-06T15:48:54+09:00",
        "type": "offStreet"
    },
    {
        "id": "sel-0003",
        "name": "신설동 공영주차장",
        "district": "동대문구",
        "address": "서울특별시 동대문구 신설동 114-29",
        "lat": 37.57252061,
        "lng": 127.02425684,
        "operationHours": "09:00~19:00",
        "fee": "기본 5분 360원 / 추가 5분당 360원",
        "totalSpaces": 79,
        "availableSpaces": 13,
        "updatedAt": "2026-07-06T15:48:54+09:00",
        "type": "offStreet"
    },
    {
        "id": "sel-0004",
        "name": "영등포구청역 공영주차장",
        "district": "영등포구",
        "address": "서울특별시 영등포구 당산동3가 370-3",
        "lat": 37.52432737,
        "lng": 126.89548892,
        "operationHours": "05:00~01:00",
        "fee": "기본 5분 400원 / 추가 5분당 400원",
        "totalSpaces": 137,
        "availableSpaces": 29,
        "updatedAt": "2026-07-06T15:48:54+09:00",
        "type": "offStreet"
    },
    {
        "id": "sel-0005",
        "name": "잠실역 공영주차장",
        "district": "송파구",
        "address": "서울특별시 송파구 신천동 27-0",
        "lat": 37.51427683,
        "lng": 127.10341414,
        "operationHours": "05:00~01:00",
        "fee": "기본 5분 440원 / 추가 5분당 440원",
        "totalSpaces": 357,
        "availableSpaces": 51,
        "updatedAt": "2026-07-06T15:48:54+09:00",
        "type": "offStreet"
    },
    {
        "id": "sel-0006",
        "name": "장안2동 공영주차장",
        "district": "동대문구",
        "address": "서울특별시 동대문구 장안동 286-9",
        "lat": 37.5782752,
        "lng": 127.07061896,
        "operationHours": "24시간",
        "fee": "기본 5분 130원 / 추가 5분당 130원",
        "totalSpaces": 80,
        "availableSpaces": 22,
        "updatedAt": "2026-07-06T15:48:54+09:00",
        "type": "offStreet"
    },
    {
        "id": "sel-0007",
        "name": "당산노외 공영주차장",
        "district": "영등포구",
        "address": "서울특별시 영등포구 당산동3가 2-1",
        "lat": 37.52625065,
        "lng": 126.89945376,
        "operationHours": "08:00~21:00",
        "fee": "기본 5분 400원 / 추가 5분당 400원",
        "totalSpaces": 236,
        "availableSpaces": 168,
        "updatedAt": "2026-07-06T15:48:54+09:00",
        "type": "offStreet"
    },
    {
        "id": "sel-0008",
        "name": "명일파출소 공영주차장",
        "district": "강동구",
        "address": "서울특별시 강동구 명일동 47-9",
        "lat": 37.55361065,
        "lng": 127.15591212,
        "operationHours": "09:00~20:00",
        "fee": "기본 5분 220원 / 추가 5분당 220원",
        "totalSpaces": 12,
        "availableSpaces": 7,
        "updatedAt": "2026-07-06T15:48:54+09:00",
        "type": "offStreet"
    },
    {
        "id": "sel-0009",
        "name": "동작대교 공영주차장",
        "district": "용산구",
        "address": "서울특별시 용산구 용산동6가 69-11",
        "lat": 37.518577,
        "lng": 126.983287,
        "operationHours": "08:00~22:00",
        "fee": "기본 5분 120원 / 추가 5분당 120원",
        "totalSpaces": 88,
        "availableSpaces": 14,
        "updatedAt": "2026-07-06T15:48:54+09:00",
        "type": "offStreet"
    },
    {
        "id": "sel-0010",
        "name": "개화역 공영주차장",
        "district": "강서구",
        "address": "서울특별시 강서구 개화동 664-0",
        "lat": 37.57798421,
        "lng": 126.79821222,
        "operationHours": "24시간",
        "fee": "기본 5분 290원 / 추가 5분당 290원",
        "totalSpaces": 483,
        "availableSpaces": 9,
        "updatedAt": "2026-07-06T15:48:54+09:00",
        "type": "offStreet"
    },
    {
        "id": "sel-0011",
        "name": "신대방역 공영주차장",
        "district": "관악구",
        "address": "서울특별시 관악구 신림동 498-0",
        "lat": 37.48830327,
        "lng": 126.91452278,
        "operationHours": "24시간",
        "fee": "기본 5분 360원 / 추가 5분당 360원",
        "totalSpaces": 60,
        "availableSpaces": 18,
        "updatedAt": "2026-07-06T15:48:54+09:00",
        "type": "offStreet"
    },
    {
        "id": "sel-0012",
        "name": "구로디지털단지역(상) 공영주차장",
        "district": "관악구",
        "address": "서울특별시 관악구 신림동 1677-5",
        "lat": 37.48481135,
        "lng": 126.90323392,
        "operationHours": "08:00~21:00",
        "fee": "기본 5분 360원 / 추가 5분당 360원",
        "totalSpaces": 31,
        "availableSpaces": 0,
        "updatedAt": "2026-07-06T15:48:54+09:00",
        "type": "offStreet"
    },
    {
        "id": "sel-0013",
        "name": "창동역(서) 공영주차장",
        "district": "도봉구",
        "address": "서울특별시 도봉구 창동 330-0",
        "lat": 37.65237042,
        "lng": 127.04567683,
        "operationHours": "24시간",
        "fee": "기본 5분 320원 / 추가 5분당 320원",
        "totalSpaces": 106,
        "availableSpaces": 32,
        "updatedAt": "2026-07-06T15:48:54+09:00",
        "type": "offStreet"
    },
    {
        "id": "sel-0014",
        "name": "석계역 공영주차장",
        "district": "노원구",
        "address": "서울특별시 노원구 월계동 50-9",
        "lat": 37.615292,
        "lng": 127.062997,
        "operationHours": "24시간",
        "fee": "기본 5분 280원 / 추가 5분당 280원",
        "totalSpaces": 70,
        "availableSpaces": 19,
        "updatedAt": "2026-07-06T15:48:54+09:00",
        "type": "offStreet"
    },
    {
        "id": "sel-0015",
        "name": "동구로 공영주차장",
        "district": "구로구",
        "address": "서울특별시 구로구 구로동 94-1",
        "lat": 37.49510602,
        "lng": 126.89186155,
        "operationHours": "24시간",
        "fee": "기본 5분 320원 / 추가 5분당 320원",
        "totalSpaces": 70,
        "availableSpaces": 37,
        "updatedAt": "2026-07-06T15:48:54+09:00",
        "type": "offStreet"
    },
    {
        "id": "sel-0016",
        "name": "대림노외 공영주차장",
        "district": "구로구",
        "address": "서울특별시 구로구 구로동 120-3",
        "lat": 37.4928472,
        "lng": 126.89433148,
        "operationHours": "09:00~19:00",
        "fee": "기본 5분 320원 / 추가 5분당 320원",
        "totalSpaces": 93,
        "availableSpaces": 56,
        "updatedAt": "2026-07-06T15:48:54+09:00",
        "type": "offStreet"
    },
    {
        "id": "sel-0017",
        "name": "도봉산역 공영주차장",
        "district": "도봉구",
        "address": "서울특별시 도봉구 도봉동 288-19",
        "lat": 37.68972069,
        "lng": 127.04483862,
        "operationHours": "24시간",
        "fee": "기본 5분 280원 / 추가 5분당 280원",
        "totalSpaces": 358,
        "availableSpaces": 0,
        "updatedAt": "2026-07-06T15:48:54+09:00",
        "type": "offStreet"
    },
    {
        "id": "sel-0018",
        "name": "동대문 공영주차장",
        "district": "중구",
        "address": "서울특별시 중구 신당동 251-7",
        "lat": 37.56710187,
        "lng": 127.01214106,
        "operationHours": "24시간",
        "fee": "기본 5분 360원 / 추가 5분당 360원",
        "totalSpaces": 1090,
        "availableSpaces": 863,
        "updatedAt": "2026-07-06T15:48:54+09:00",
        "type": "offStreet"
    },
    {
        "id": "sel-0019",
        "name": "서울글로벌센터 공영주차장",
        "district": "종로구",
        "address": "서울특별시 종로구 서린동 63-0",
        "lat": 37.56983402,
        "lng": 126.98150586,
        "operationHours": "09:00~18:00",
        "fee": "기본 5분 700원 / 추가 5분당 700원",
        "totalSpaces": 44,
        "availableSpaces": 15,
        "updatedAt": "2026-07-06T15:48:54+09:00",
        "type": "offStreet"
    },
    {
        "id": "sel-0020",
        "name": "천왕역 공영주차장",
        "district": "구로구",
        "address": "서울특별시 구로구 천왕동 280-11",
        "lat": 37.48728845,
        "lng": 126.83918316,
        "operationHours": "24시간",
        "fee": "기본 5분 280원 / 추가 5분당 280원",
        "totalSpaces": 327,
        "availableSpaces": 65,
        "updatedAt": "2026-07-06T15:48:54+09:00",
        "type": "offStreet"
    },
    {
        "id": "sel-0021",
        "name": "동국제강 공영주차장",
        "district": "중구",
        "address": "서울특별시 중구 삼각동 111-1",
        "lat": 37.56733736,
        "lng": 126.98343453,
        "operationHours": "09:00~19:00",
        "fee": "기본 5분 700원 / 추가 5분당 700원",
        "totalSpaces": 13,
        "availableSpaces": 10,
        "updatedAt": "2026-07-06T15:48:54+09:00",
        "type": "offStreet"
    },
    {
        "id": "sel-0022",
        "name": "영남 공영주차장",
        "district": "영등포구",
        "address": "서울특별시 영등포구 영등포동4가 123-0",
        "lat": 37.51947074,
        "lng": 126.90260898,
        "operationHours": "24시간",
        "fee": "기본 5분 160원 / 추가 5분당 160원",
        "totalSpaces": 570,
        "availableSpaces": 290,
        "updatedAt": "2026-07-06T15:48:54+09:00",
        "type": "offStreet"
    },
    {
        "id": "sel-0023",
        "name": "남부여성발전센터 공영주차장",
        "district": "금천구",
        "address": "서울특별시 금천구 시흥동 139-2",
        "lat": 37.462917,
        "lng": 126.905718,
        "operationHours": "24시간",
        "fee": "기본 5분 120원 / 추가 5분당 120원",
        "totalSpaces": 128,
        "availableSpaces": 21,
        "updatedAt": "2026-07-06T15:48:54+09:00",
        "type": "offStreet"
    },
    {
        "id": "sel-0024",
        "name": "신방화역 공영주차장",
        "district": "강서구",
        "address": "서울특별시 강서구 마곡동 739-0",
        "lat": 37.56706812,
        "lng": 126.81757628,
        "operationHours": "24시간",
        "fee": "기본 5분 290원 / 추가 5분당 290원",
        "totalSpaces": 198,
        "availableSpaces": 40,
        "updatedAt": "2026-07-06T15:48:54+09:00",
        "type": "offStreet"
    },
    {
        "id": "sel-0025",
        "name": "가양라이품 공영주차장",
        "district": "강서구",
        "address": "서울특별시 강서구 가양동 1457-1",
        "lat": 37.57155732,
        "lng": 126.84165292,
        "operationHours": "24시간",
        "fee": "기본 5분 200원 / 추가 5분당 200원",
        "totalSpaces": 38,
        "availableSpaces": 10,
        "updatedAt": "2026-07-06T15:48:54+09:00",
        "type": "offStreet"
    },
    {
        "id": "sel-0026",
        "name": "보라매상업 공영주차장",
        "district": "동작구",
        "address": "서울특별시 동작구 신대방동 431-3",
        "lat": 37.49039184,
        "lng": 126.92340595,
        "operationHours": "09:00~21:00",
        "fee": "기본 5분 220원 / 추가 5분당 220원",
        "totalSpaces": 61,
        "availableSpaces": 13,
        "updatedAt": "2026-07-06T15:48:54+09:00",
        "type": "offStreet"
    },
    {
        "id": "sel-0027",
        "name": "신월4동 공영주차장",
        "district": "양천구",
        "address": "서울특별시 양천구 신월동 411-1",
        "lat": 37.525643,
        "lng": 126.837692,
        "operationHours": "24시간",
        "fee": "기본 5분 120원 / 추가 5분당 120원",
        "totalSpaces": 46,
        "availableSpaces": 34,
        "updatedAt": "2026-07-06T15:48:54+09:00",
        "type": "offStreet"
    },
    {
        "id": "sel-0028",
        "name": "세종로 공영주차장",
        "district": "종로구",
        "address": "서울특별시 종로구 세종로 80-1",
        "lat": 37.57340269,
        "lng": 126.97588429,
        "operationHours": "24시간",
        "fee": "기본 5분 430원 / 추가 5분당 430원",
        "totalSpaces": 1260,
        "availableSpaces": 470,
        "updatedAt": "2026-07-06T15:48:54+09:00",
        "type": "offStreet"
    },
    {
        "id": "sel-0029",
        "name": "종묘주차장 공영주차장",
        "district": "종로구",
        "address": "서울특별시 종로구 훈정동 2-0",
        "lat": 37.57150398,
        "lng": 126.99496888,
        "operationHours": "24시간",
        "fee": "기본 5분 400원 / 추가 5분당 400원",
        "totalSpaces": 1312,
        "availableSpaces": 51,
        "updatedAt": "2026-07-06T15:48:54+09:00",
        "type": "offStreet"
    },
    {
        "id": "sel-0030",
        "name": "용산주차빌딩 공영주차장",
        "district": "용산구",
        "address": "서울특별시 용산구 한강로2가 12-9",
        "lat": 37.53436379,
        "lng": 126.96541818,
        "operationHours": "24시간",
        "fee": "기본 5분 270원 / 추가 5분당 270원",
        "totalSpaces": 559,
        "availableSpaces": 336,
        "updatedAt": "2026-07-06T15:48:54+09:00",
        "type": "offStreet"
    },
    {
        "id": "sel-0031",
        "name": "웃우물 공영주차장",
        "district": "양천구",
        "address": "서울특별시 양천구 신정동 943-25",
        "lat": 37.52379759,
        "lng": 126.85141746,
        "operationHours": "24시간",
        "fee": "기본 5분 200원 / 추가 5분당 200원",
        "totalSpaces": 79,
        "availableSpaces": 25,
        "updatedAt": "2026-07-06T15:48:54+09:00",
        "type": "offStreet"
    },
    {
        "id": "sel-0032",
        "name": "목동체비지 공영주차장",
        "district": "양천구",
        "address": "서울특별시 양천구 목동 908-26",
        "lat": 37.53679354,
        "lng": 126.8806468,
        "operationHours": "08:00~21:00",
        "fee": "기본 5분 130원 / 추가 5분당 130원",
        "totalSpaces": 55,
        "availableSpaces": 0,
        "updatedAt": "2026-07-06T15:48:54+09:00",
        "type": "offStreet"
    },
    {
        "id": "sel-0033",
        "name": "방화역(서) 공영주차장",
        "district": "강서구",
        "address": "서울특별시 강서구 방화동 829-1",
        "lat": 37.57757395,
        "lng": 126.81217459,
        "operationHours": "08:00~21:00",
        "fee": "기본 5분 290원 / 추가 5분당 290원",
        "totalSpaces": 69,
        "availableSpaces": 30,
        "updatedAt": "2026-07-06T15:48:54+09:00",
        "type": "offStreet"
    },
    {
        "id": "sel-0034",
        "name": "방화역(동) 공영주차장",
        "district": "강서구",
        "address": "서울특별시 강서구 방화동 830-4",
        "lat": 37.57730116,
        "lng": 126.81331479,
        "operationHours": "08:00~21:00",
        "fee": "기본 5분 290원 / 추가 5분당 290원",
        "totalSpaces": 67,
        "availableSpaces": 0,
        "updatedAt": "2026-07-06T15:48:54+09:00",
        "type": "offStreet"
    },
    {
        "id": "sel-0035",
        "name": "개화산역 공영주차장",
        "district": "강서구",
        "address": "서울특별시 강서구 방화동 845-0",
        "lat": 37.57224302,
        "lng": 126.80518976,
        "operationHours": "24시간",
        "fee": "기본 5분 290원 / 추가 5분당 290원",
        "totalSpaces": 320,
        "availableSpaces": 79,
        "updatedAt": "2026-07-06T15:48:54+09:00",
        "type": "offStreet"
    },
    {
        "id": "sel-0036",
        "name": "가양3동 공영주차장",
        "district": "강서구",
        "address": "서울특별시 강서구 가양동 1488-12",
        "lat": 37.56033753,
        "lng": 126.85977547,
        "operationHours": "09:00~19:00",
        "fee": "기본 5분 200원 / 추가 5분당 200원",
        "totalSpaces": 56,
        "availableSpaces": 0,
        "updatedAt": "2026-07-06T15:48:54+09:00",
        "type": "offStreet"
    },
    {
        "id": "sel-0037",
        "name": "가양역 공영주차장",
        "district": "강서구",
        "address": "서울특별시 강서구 가양동 1480-10",
        "lat": 37.56332959,
        "lng": 126.85308175,
        "operationHours": "08:00~21:00",
        "fee": "기본 5분 320원 / 추가 5분당 320원",
        "totalSpaces": 79,
        "availableSpaces": 28,
        "updatedAt": "2026-07-06T15:48:54+09:00",
        "type": "offStreet"
    },
    {
        "id": "sel-0038",
        "name": "일원역 공영주차장",
        "district": "강남구",
        "address": "서울특별시 강남구 일원동 716-2",
        "lat": 37.48468629,
        "lng": 127.08408987,
        "operationHours": "09:00~19:00",
        "fee": "기본 5분 290원 / 추가 5분당 290원",
        "totalSpaces": 67,
        "availableSpaces": 1,
        "updatedAt": "2026-07-06T15:48:54+09:00",
        "type": "offStreet"
    },
    {
        "id": "sel-0039",
        "name": "사당노외 공영주차장",
        "district": "서초구",
        "address": "서울특별시 서초구 방배동 507-1",
        "lat": 37.47543791,
        "lng": 126.98377372,
        "operationHours": "24시간",
        "fee": "기본 5분 400원 / 추가 5분당 400원",
        "totalSpaces": 183,
        "availableSpaces": 80,
        "updatedAt": "2026-07-06T15:48:54+09:00",
        "type": "offStreet"
    },
    {
        "id": "sel-0040",
        "name": "수서역 공영주차장",
        "district": "강남구",
        "address": "서울특별시 강남구 수서동 735-0",
        "lat": 37.48801285,
        "lng": 127.09994995,
        "operationHours": "24시간",
        "fee": "기본 5분 320원 / 추가 5분당 320원",
        "totalSpaces": 561,
        "availableSpaces": 60,
        "updatedAt": "2026-07-06T15:48:54+09:00",
        "type": "offStreet"
    },
    {
        "id": "sel-0041",
        "name": "신천유수지 공영주차장",
        "district": "송파구",
        "address": "서울특별시 송파구 신천동 14-0",
        "lat": 37.52231457,
        "lng": 127.10290327,
        "operationHours": "24시간",
        "fee": "기본 5분 440원 / 추가 5분당 440원",
        "totalSpaces": 192,
        "availableSpaces": 48,
        "updatedAt": "2026-07-06T15:48:54+09:00",
        "type": "offStreet"
    },
    {
        "id": "sel-0042",
        "name": "복정역 공영주차장",
        "district": "송파구",
        "address": "서울특별시 송파구 장지동 600-2",
        "lat": 37.47005293,
        "lng": 127.1277329,
        "operationHours": "24시간",
        "fee": "기본 5분 280원 / 추가 5분당 280원",
        "totalSpaces": 362,
        "availableSpaces": 145,
        "updatedAt": "2026-07-06T15:48:54+09:00",
        "type": "offStreet"
    },
    {
        "id": "sel-0043",
        "name": "남산한옥마을 공영주차장",
        "district": "중구",
        "address": "서울특별시 중구 필동2가 83-1",
        "lat": 37.56005799,
        "lng": 126.99316078,
        "operationHours": "09:00~20:00",
        "fee": "기본 5분 500원 / 추가 5분당 500원",
        "totalSpaces": 16,
        "availableSpaces": 13,
        "updatedAt": "2026-07-06T15:48:54+09:00",
        "type": "offStreet"
    },
    {
        "id": "sel-0044",
        "name": "도봉산 공영주차장",
        "district": "도봉구",
        "address": "서울특별시 도봉구 도봉동 282-26",
        "lat": 37.6876442,
        "lng": 127.04066026,
        "operationHours": "08:00~22:00",
        "fee": "기본 5분 170원 / 추가 5분당 170원",
        "totalSpaces": 142,
        "availableSpaces": 53,
        "updatedAt": "2026-07-06T15:48:54+09:00",
        "type": "offStreet"
    },
    {
        "id": "sel-0045",
        "name": "볕우물 공영주차장",
        "district": "강동구",
        "address": "서울특별시 강동구 암사동 473-3",
        "lat": 37.55237413,
        "lng": 127.13512275,
        "operationHours": "00:00~00:00",
        "fee": "기본 5분 120원 / 추가 5분당 120원",
        "totalSpaces": 96,
        "availableSpaces": 16,
        "updatedAt": "2026-07-06T15:48:54+09:00",
        "type": "offStreet"
    },
    {
        "id": "sel-0046",
        "name": "천호역 공영주차장",
        "district": "강동구",
        "address": "서울특별시 강동구 천호동 455-0",
        "lat": 37.53849749,
        "lng": 127.12512853,
        "operationHours": "24시간",
        "fee": "기본 5분 360원 / 추가 5분당 360원",
        "totalSpaces": 1431,
        "availableSpaces": 296,
        "updatedAt": "2026-07-06T15:48:54+09:00",
        "type": "offStreet"
    },
    {
        "id": "sel-0047",
        "name": "남산예장 관광버스전용 주차장",
        "district": "중구",
        "address": "서울특별시 중구 예장동 4-1",
        "lat": 37.559821,
        "lng": 126.989076,
        "operationHours": "06:00~24:00",
        "fee": "기본 120분 6000원 / 추가 5분당 500원",
        "totalSpaces": 39,
        "availableSpaces": 9,
        "updatedAt": "2026-07-06T15:48:54+09:00",
        "type": "offStreet"
    },
    {
        "id": "sel-0048",
        "name": "장안1동 공영주차장",
        "district": "동대문구",
        "address": "서울특별시 동대문구 장안동 392-3",
        "lat": 37.56941,
        "lng": 127.066994,
        "operationHours": "24시간",
        "fee": "기본 5분 130원 / 추가 5분당 130원",
        "totalSpaces": 71,
        "availableSpaces": 3,
        "updatedAt": "2026-07-06T15:48:54+09:00",
        "type": "offStreet"
    },
    {
        "id": "sel-0049",
        "name": "반포천 공영주차장(파미에)",
        "district": "서초구",
        "address": "서울특별시 서초구 반포동 118-3",
        "lat": 37.504517,
        "lng": 127.007933,
        "operationHours": "24시간",
        "fee": "기본 5분 550원 / 추가 5분당 550원",
        "totalSpaces": 1186,
        "availableSpaces": 326,
        "updatedAt": "2026-07-06T15:48:54+09:00",
        "type": "offStreet"
    },
    {
        "id": "sel-0050",
        "name": "중곡1동 공영주차장",
        "district": "광진구",
        "address": "서울특별시 광진구 중곡동 230-12",
        "lat": 37.5645259,
        "lng": 127.0807859,
        "operationHours": "24시간",
        "fee": "기본 5분 200원 / 추가 5분당 200원",
        "totalSpaces": 130,
        "availableSpaces": 11,
        "updatedAt": "2026-07-06T15:48:54+09:00",
        "type": "offStreet"
    },
    {
        "id": "arpt-0001",
        "name": "김포국제공항 국내선 제1주차장",
        "district": "강서구",
        "address": "서울특별시 강서구 김포국제공항",
        "lat": 37.5583,
        "lng": 126.7906,
        "operationHours": "24시간",
        "fee": "요금 정보 없음",
        "totalSpaces": 2279,
        "availableSpaces": 430,
        "updatedAt": "2026-07-06T16:32:03+09:00",
        "type": "offStreet"
    },
    {
        "id": "arpt-0002",
        "name": "김포국제공항 국내선 제2주차장",
        "district": "강서구",
        "address": "서울특별시 강서구 김포국제공항",
        "lat": 37.5623,
        "lng": 126.7926,
        "operationHours": "24시간",
        "fee": "요금 정보 없음",
        "totalSpaces": 1733,
        "availableSpaces": 604,
        "updatedAt": "2026-07-06T16:32:03+09:00",
        "type": "offStreet"
    },
    {
        "id": "arpt-0003",
        "name": "김포국제공항 국제선 주차빌딩",
        "district": "강서구",
        "address": "서울특별시 강서구 김포국제공항",
        "lat": 37.5543,
        "lng": 126.7926,
        "operationHours": "24시간",
        "fee": "요금 정보 없음",
        "totalSpaces": 567,
        "availableSpaces": 104,
        "updatedAt": "2026-07-06T16:32:03+09:00",
        "type": "offStreet"
    },
    {
        "id": "arpt-0004",
        "name": "김포국제공항 국제선 지하",
        "district": "강서구",
        "address": "서울특별시 강서구 김포국제공항",
        "lat": 37.5623,
        "lng": 126.7886,
        "operationHours": "24시간",
        "fee": "요금 정보 없음",
        "totalSpaces": 599,
        "availableSpaces": 185,
        "updatedAt": "2026-07-06T16:32:03+09:00",
        "type": "offStreet"
    },
    {
        "id": "arpt-0005",
        "name": "김포국제공항 화물청사",
        "district": "강서구",
        "address": "서울특별시 강서구 김포국제공항",
        "lat": 37.5543,
        "lng": 126.7886,
        "operationHours": "24시간",
        "fee": "요금 정보 없음",
        "totalSpaces": 737,
        "availableSpaces": 0,
        "updatedAt": "2026-07-06T16:32:03+09:00",
        "type": "offStreet"
    },
    {
        "id": "arpt-0006",
        "name": "김해국제공항 P1 여객주차장",
        "district": "강서구",
        "address": "부산광역시 강서구 김해국제공항",
        "lat": 35.1795,
        "lng": 128.9382,
        "operationHours": "24시간",
        "fee": "요금 정보 없음",
        "totalSpaces": 2005,
        "availableSpaces": 261,
        "updatedAt": "2026-07-06T16:32:03+09:00",
        "type": "offStreet"
    },
    {
        "id": "arpt-0007",
        "name": "김해국제공항 P2 여객주차장",
        "district": "강서구",
        "address": "부산광역시 강서구 김해국제공항",
        "lat": 35.1835,
        "lng": 128.9402,
        "operationHours": "24시간",
        "fee": "요금 정보 없음",
        "totalSpaces": 2453,
        "availableSpaces": 337,
        "updatedAt": "2026-07-06T16:32:03+09:00",
        "type": "offStreet"
    },
    {
        "id": "arpt-0008",
        "name": "김해국제공항 P3 여객(화물)",
        "district": "강서구",
        "address": "부산광역시 강서구 김해국제공항",
        "lat": 35.1755,
        "lng": 128.9402,
        "operationHours": "24시간",
        "fee": "요금 정보 없음",
        "totalSpaces": 878,
        "availableSpaces": 165,
        "updatedAt": "2026-07-06T16:32:03+09:00",
        "type": "offStreet"
    },
    {
        "id": "arpt-0009",
        "name": "제주국제공항 P1주차장",
        "district": "제주시",
        "address": "제주특별자치도 제주시 제주국제공항",
        "lat": 33.5113,
        "lng": 126.493,
        "operationHours": "24시간",
        "fee": "요금 정보 없음",
        "totalSpaces": 1763,
        "availableSpaces": 412,
        "updatedAt": "2026-07-06T16:32:03+09:00",
        "type": "offStreet"
    },
    {
        "id": "arpt-0010",
        "name": "제주국제공항 P2장기주차장",
        "district": "제주시",
        "address": "제주특별자치도 제주시 제주국제공항",
        "lat": 33.5153,
        "lng": 126.495,
        "operationHours": "24시간",
        "fee": "요금 정보 없음",
        "totalSpaces": 488,
        "availableSpaces": 195,
        "updatedAt": "2026-07-06T16:32:03+09:00",
        "type": "offStreet"
    },
    {
        "id": "arpt-0011",
        "name": "제주국제공항 화물주차장",
        "district": "제주시",
        "address": "제주특별자치도 제주시 제주국제공항",
        "lat": 33.5073,
        "lng": 126.495,
        "operationHours": "24시간",
        "fee": "요금 정보 없음",
        "totalSpaces": 732,
        "availableSpaces": 0,
        "updatedAt": "2026-07-06T16:32:03+09:00",
        "type": "offStreet"
    },
    {
        "id": "arpt-0012",
        "name": "대구국제공항 여객주차장",
        "district": "동구",
        "address": "대구광역시 동구 대구국제공항",
        "lat": 35.8941,
        "lng": 128.6589,
        "operationHours": "24시간",
        "fee": "요금 정보 없음",
        "totalSpaces": 1361,
        "availableSpaces": 394,
        "updatedAt": "2026-07-06T16:32:03+09:00",
        "type": "offStreet"
    },
    {
        "id": "arpt-0013",
        "name": "대구국제공항 화물주차장",
        "district": "동구",
        "address": "대구광역시 동구 대구국제공항",
        "lat": 35.8981,
        "lng": 128.6609,
        "operationHours": "24시간",
        "fee": "요금 정보 없음",
        "totalSpaces": 13,
        "availableSpaces": 0,
        "updatedAt": "2026-07-06T16:32:03+09:00",
        "type": "offStreet"
    },
    {
        "id": "arpt-0014",
        "name": "광주공항 여객주차장(제1+제2)",
        "district": "광산구",
        "address": "광주광역시 광산구 광주공항",
        "lat": 35.1264,
        "lng": 126.8089,
        "operationHours": "24시간",
        "fee": "요금 정보 없음",
        "totalSpaces": 1176,
        "availableSpaces": 302,
        "updatedAt": "2026-07-06T16:32:03+09:00",
        "type": "offStreet"
    },
    {
        "id": "arpt-0015",
        "name": "여수공항 여객주차장",
        "district": "여수시",
        "address": "전라남도 여수시 여수공항",
        "lat": 34.8423,
        "lng": 127.6169,
        "operationHours": "24시간",
        "fee": "요금 정보 없음",
        "totalSpaces": 852,
        "availableSpaces": 362,
        "updatedAt": "2026-07-06T16:32:03+09:00",
        "type": "offStreet"
    },
    {
        "id": "arpt-0016",
        "name": "울산공항 여객주차장",
        "district": "북구",
        "address": "울산광역시 북구 울산공항",
        "lat": 35.5934,
        "lng": 129.3517,
        "operationHours": "24시간",
        "fee": "요금 정보 없음",
        "totalSpaces": 539,
        "availableSpaces": 188,
        "updatedAt": "2026-07-06T16:32:03+09:00",
        "type": "offStreet"
    },
    {
        "id": "arpt-0017",
        "name": "군산공항 여객주차장",
        "district": "군산시",
        "address": "전라북도 군산시 군산공항",
        "lat": 35.9038,
        "lng": 126.6158,
        "operationHours": "24시간",
        "fee": "요금 정보 없음",
        "totalSpaces": 467,
        "availableSpaces": 223,
        "updatedAt": "2026-07-06T16:32:03+09:00",
        "type": "offStreet"
    },
    {
        "id": "arpt-0018",
        "name": "원주공항 여객주차장",
        "district": "횡성군",
        "address": "강원특별자치도 횡성군 원주공항",
        "lat": 37.438,
        "lng": 127.96,
        "operationHours": "24시간",
        "fee": "요금 정보 없음",
        "totalSpaces": 129,
        "availableSpaces": 49,
        "updatedAt": "2026-07-06T16:32:03+09:00",
        "type": "offStreet"
    },
    {
        "id": "arpt-0019",
        "name": "청주국제공항 여객 제1주차장",
        "district": "청주시",
        "address": "충청북도 청주시 청주국제공항",
        "lat": 36.7166,
        "lng": 127.4992,
        "operationHours": "24시간",
        "fee": "요금 정보 없음",
        "totalSpaces": 2203,
        "availableSpaces": 22,
        "updatedAt": "2026-07-06T16:32:03+09:00",
        "type": "offStreet"
    },
    {
        "id": "arpt-0020",
        "name": "청주국제공항 여객 제2주차장",
        "district": "청주시",
        "address": "충청북도 청주시 청주국제공항",
        "lat": 36.7206,
        "lng": 127.5012,
        "operationHours": "24시간",
        "fee": "요금 정보 없음",
        "totalSpaces": 1703,
        "availableSpaces": 784,
        "updatedAt": "2026-07-06T16:32:03+09:00",
        "type": "offStreet"
    },
    {
        "id": "arpt-0021",
        "name": "청주국제공항 여객 제3주차장",
        "district": "청주시",
        "address": "충청북도 청주시 청주국제공항",
        "lat": 36.7126,
        "lng": 127.5012,
        "operationHours": "24시간",
        "fee": "요금 정보 없음",
        "totalSpaces": 808,
        "availableSpaces": 373,
        "updatedAt": "2026-07-06T16:32:03+09:00",
        "type": "offStreet"
    },
    {
        "id": "arpt-0022",
        "name": "청주국제공항 여객 제4주차장",
        "district": "청주시",
        "address": "충청북도 청주시 청주국제공항",
        "lat": 36.7206,
        "lng": 127.4972,
        "operationHours": "24시간",
        "fee": "요금 정보 없음",
        "totalSpaces": 463,
        "availableSpaces": 359,
        "updatedAt": "2026-07-06T16:32:03+09:00",
        "type": "offStreet"
    },
    {
        "id": "arpt-0023",
        "name": "무안국제공항 여객주차장",
        "district": "무안군",
        "address": "전라남도 무안군 무안국제공항",
        "lat": 34.9914,
        "lng": 126.3828,
        "operationHours": "24시간",
        "fee": "요금 정보 없음",
        "totalSpaces": 2467,
        "availableSpaces": 2467,
        "updatedAt": "2026-07-06T16:32:03+09:00",
        "type": "offStreet"
    },
    {
        "id": "arpt-0024",
        "name": "사천공항 여객주차장",
        "district": "사천시",
        "address": "경상남도 사천시 사천공항",
        "lat": 35.0885,
        "lng": 128.07,
        "operationHours": "24시간",
        "fee": "요금 정보 없음",
        "totalSpaces": 226,
        "availableSpaces": 92,
        "updatedAt": "2026-07-06T16:32:03+09:00",
        "type": "offStreet"
    },
    {
        "id": "arpt-0025",
        "name": "양양국제공항 여객주차장",
        "district": "양양군",
        "address": "강원특별자치도 양양군 양양국제공항",
        "lat": 38.0611,
        "lng": 128.669,
        "operationHours": "24시간",
        "fee": "요금 정보 없음",
        "totalSpaces": 452,
        "availableSpaces": 165,
        "updatedAt": "2026-07-06T16:32:03+09:00",
        "type": "offStreet"
    },
    {
        "id": "jj-0001",
        "name": "경찰서2주차장",
        "district": "진주시",
        "address": "경상남도 진주시 중안동 10",
        "lat": 35.192941,
        "lng": 128.081311,
        "operationHours": "08:00~22:00",
        "fee": "기본 30분 500원 / 추가 10분당 200원",
        "totalSpaces": 9,
        "availableSpaces": 6,
        "updatedAt": "2026-07-06T16:35:00+09:00",
        "type": "onStreet"
    },
    {
        "id": "jj-0002",
        "name": "본성2주차장",
        "district": "진주시",
        "address": "경상남도 진주시 본성동 5",
        "lat": 35.192138,
        "lng": 128.083253,
        "operationHours": "08:00~22:00",
        "fee": "기본 30분 500원 / 추가 10분당 200원",
        "totalSpaces": 19,
        "availableSpaces": 8,
        "updatedAt": "2026-07-06T16:35:00+09:00",
        "type": "onStreet"
    },
    {
        "id": "jj-0003",
        "name": "본성3주차장",
        "district": "진주시",
        "address": "경상남도 진주시 본성동 12-3",
        "lat": 35.19129099,
        "lng": 128.0818576,
        "operationHours": "08:00~22:00",
        "fee": "기본 30분 500원 / 추가 10분당 200원",
        "totalSpaces": 12,
        "availableSpaces": 12,
        "updatedAt": "2026-07-06T16:35:00+09:00",
        "type": "onStreet"
    },
    {
        "id": "jj-0004",
        "name": "본성4주차장",
        "district": "진주시",
        "address": "경상남도 진주시 본성동 3-5",
        "lat": 35.19126436,
        "lng": 128.0818576,
        "operationHours": "08:00~22:00",
        "fee": "기본 30분 500원 / 추가 10분당 200원",
        "totalSpaces": 10,
        "availableSpaces": 6,
        "updatedAt": "2026-07-06T16:35:00+09:00",
        "type": "onStreet"
    },
    {
        "id": "jj-0005",
        "name": "본성5주차장",
        "district": "진주시",
        "address": "경상남도 진주시 본성동 15-23",
        "lat": 35.191716,
        "lng": 128.081155,
        "operationHours": "08:00~22:00",
        "fee": "기본 30분 500원 / 추가 10분당 200원",
        "totalSpaces": 15,
        "availableSpaces": 6,
        "updatedAt": "2026-07-06T16:35:00+09:00",
        "type": "onStreet"
    }
]
