[
    {
        "id":  "sel-0001",
        "name":  "신사역 공영주차장",
        "district":  "강남구",
        "address":  "서울특별시 강남구 가로수길",
        "lat":  37.5233605,
        "lng":  127.0239924,
        "operationHours":  "11:00~21:00",
        "fee":  "기본 5분 400원 / 추가 5분당 400원",
        "totalSpaces":  31,
        "availableSpaces":  13,
        "updatedAt":  "2026-07-06T07:32:00+09:00",
        "type":  "onStreet"
    },
    {
        "id":  "sel-0002",
        "name":  "논현초교 공영주차장",
        "district":  "강남구",
        "address":  "서울특별시 강남구 강남대로 120길33",
        "lat":  37.50848958,
        "lng":  127.0262229,
        "operationHours":  "24시간",
        "fee":  "기본 5분 300원 / 추가 5분당 300원",
        "totalSpaces":  181,
        "availableSpaces":  44,
        "updatedAt":  "2026-07-06T09:45:00+09:00",
        "type":  "offStreet"
    },
    {
        "id":  "sel-0003",
        "name":  "개포동공원 공영주차장",
        "district":  "강남구",
        "address":  "서울특별시 강남구 개포로 509",
        "lat":  37.48970641,
        "lng":  127.0682905,
        "operationHours":  "24시간",
        "fee":  "기본 5분 200원 / 추가 5분당 200원",
        "totalSpaces":  146,
        "availableSpaces":  59,
        "updatedAt":  "2026-07-06T07:10:00+09:00",
        "type":  "offStreet"
    },
    {
        "id":  "sel-0004",
        "name":  "대청역 공영주차장",
        "district":  "강남구",
        "address":  "서울특별시 강남구 개포로 623-1",
        "lat":  37.494949,
        "lng":  127.0793181,
        "operationHours":  "24시간",
        "fee":  "기본 5분 100원 / 추가 5분당 100원",
        "totalSpaces":  161,
        "availableSpaces":  0,
        "updatedAt":  "2026-07-06T08:43:00+09:00",
        "type":  "offStreet"
    },
    {
        "id":  "sel-0005",
        "name":  "포이초교 공영주차장",
        "district":  "강남구",
        "address":  "서울특별시 강남구 개포로22길 87",
        "lat":  37.47591562,
        "lng":  127.0525106,
        "operationHours":  "24시간",
        "fee":  "기본 5분 200원 / 추가 5분당 200원",
        "totalSpaces":  189,
        "availableSpaces":  121,
        "updatedAt":  "2026-07-06T09:50:00+09:00",
        "type":  "offStreet"
    },
    {
        "id":  "sel-0006",
        "name":  "개포4문화센터 공영주차장",
        "district":  "강남구",
        "address":  "서울특별시 강남구 개포로24길33",
        "lat":  37.4771384,
        "lng":  127.0497487,
        "operationHours":  "24시간",
        "fee":  "기본 5분 300원 / 추가 5분당 300원",
        "totalSpaces":  43,
        "availableSpaces":  29,
        "updatedAt":  "2026-07-06T07:23:00+09:00",
        "type":  "offStreet"
    },
    {
        "id":  "sel-0007",
        "name":  "논현로22길 공영주차장",
        "district":  "강남구",
        "address":  "서울특별시 강남구 개포로25길 32",
        "lat":  37.48202594,
        "lng":  127.0484223,
        "operationHours":  "24시간",
        "fee":  "기본 5분 200원 / 추가 5분당 200원",
        "totalSpaces":  86,
        "availableSpaces":  37,
        "updatedAt":  "2026-07-06T08:22:00+09:00",
        "type":  "offStreet"
    },
    {
        "id":  "sel-0008",
        "name":  "남부순환로397길 공영주차장",
        "district":  "강남구",
        "address":  "서울특별시 강남구 남부순환로 391길",
        "lat":  37.4938113,
        "lng":  127.0600561,
        "operationHours":  "09:00~19:00",
        "fee":  "기본 5분 300원 / 추가 5분당 300원",
        "totalSpaces":  31,
        "availableSpaces":  28,
        "updatedAt":  "2026-07-06T07:55:00+09:00",
        "type":  "onStreet"
    },
    {
        "id":  "sel-0009",
        "name":  "언주초교 공영주차장",
        "district":  "강남구",
        "address":  "서울특별시 강남구 남부순환로363길19",
        "lat":  37.486322,
        "lng":  127.036793,
        "operationHours":  "24시간",
        "fee":  "기본 5분 200원 / 추가 5분당 200원",
        "totalSpaces":  203,
        "availableSpaces":  186,
        "updatedAt":  "2026-07-06T07:19:00+09:00",
        "type":  "offStreet"
    },
    {
        "id":  "sel-0010",
        "name":  "논현로131길 공영주차장",
        "district":  "강남구",
        "address":  "서울특별시 강남구 논현로 131길",
        "lat":  37.5140664,
        "lng":  127.0283924,
        "operationHours":  "09:00~19:00",
        "fee":  "기본 5분 400원 / 추가 5분당 400원",
        "totalSpaces":  18,
        "availableSpaces":  9,
        "updatedAt":  "2026-07-06T09:55:00+09:00",
        "type":  "onStreet"
    },
    {
        "id":  "sel-0011",
        "name":  "논현로32길15 공영주차장",
        "district":  "강남구",
        "address":  "서울특별시 강남구 논현로 32길15",
        "lat":  37.48425157,
        "lng":  127.0434027,
        "operationHours":  "24시간",
        "fee":  "기본 5분 300원 / 추가 5분당 300원",
        "totalSpaces":  16,
        "availableSpaces":  1,
        "updatedAt":  "2026-07-06T08:53:00+09:00",
        "type":  "offStreet"
    },
    {
        "id":  "sel-0012",
        "name":  "논현로28길 공영주차장",
        "district":  "강남구",
        "address":  "서울특별시 강남구 논현로30길 36 주변",
        "lat":  37.4836036,
        "lng":  127.0446624,
        "operationHours":  "09:00~19:00",
        "fee":  "기본 5분 300원 / 추가 5분당 300원",
        "totalSpaces":  66,
        "availableSpaces":  38,
        "updatedAt":  "2026-07-06T07:07:00+09:00",
        "type":  "onStreet"
    },
    {
        "id":  "sel-0013",
        "name":  "도곡로21길7 공영주차장",
        "district":  "강남구",
        "address":  "서울특별시 강남구 도곡로 21길7",
        "lat":  37.49259279,
        "lng":  127.0388717,
        "operationHours":  "24시간",
        "fee":  "기본 5분 400원 / 추가 5분당 400원",
        "totalSpaces":  75,
        "availableSpaces":  24,
        "updatedAt":  "2026-07-06T09:02:00+09:00",
        "type":  "offStreet"
    },
    {
        "id":  "sel-0014",
        "name":  "도곡로327 공영주차장",
        "district":  "강남구",
        "address":  "서울특별시 강남구 도곡로 327",
        "lat":  37.49615768,
        "lng":  127.0516645,
        "operationHours":  "24시간",
        "fee":  "기본 5분 400원 / 추가 5분당 400원",
        "totalSpaces":  19,
        "availableSpaces":  3,
        "updatedAt":  "2026-07-06T09:54:00+09:00",
        "type":  "offStreet"
    },
    {
        "id":  "sel-0015",
        "name":  "도곡로421 공영주차장",
        "district":  "강남구",
        "address":  "서울특별시 강남구 도곡로 421",
        "lat":  37.49767963,
        "lng":  127.0564652,
        "operationHours":  "24시간",
        "fee":  "기본 5분 400원 / 추가 5분당 400원",
        "totalSpaces":  25,
        "availableSpaces":  0,
        "updatedAt":  "2026-07-06T07:02:00+09:00",
        "type":  "offStreet"
    },
    {
        "id":  "sel-0016",
        "name":  "도산대로45길 공영주차장",
        "district":  "강남구",
        "address":  "서울특별시 강남구 도산대로45길 10 주변",
        "lat":  37.5232251,
        "lng":  127.0345108,
        "operationHours":  "10:00~20:00",
        "fee":  "기본 5분 400원 / 추가 5분당 400원",
        "totalSpaces":  31,
        "availableSpaces":  0,
        "updatedAt":  "2026-07-06T09:35:00+09:00",
        "type":  "onStreet"
    },
    {
        "id":  "sel-0017",
        "name":  "밤고개로21길 공영주차장",
        "district":  "강남구",
        "address":  "서울특별시 강남구 밤고개로21길 71",
        "lat":  37.4742623,
        "lng":  127.1141389,
        "operationHours":  "24시간",
        "fee":  "기본 5분 100원 / 추가 5분당 100원",
        "totalSpaces":  105,
        "availableSpaces":  0,
        "updatedAt":  "2026-07-06T08:11:00+09:00",
        "type":  "offStreet"
    },
    {
        "id":  "sel-0018",
        "name":  "삼성1동문화센터 공영주차장",
        "district":  "강남구",
        "address":  "서울특별시 강남구 봉은사로 616",
        "lat":  37.51433979,
        "lng":  127.062632,
        "operationHours":  "24시간",
        "fee":  "기본 5분 400원 / 추가 5분당 400원",
        "totalSpaces":  66,
        "availableSpaces":  27,
        "updatedAt":  "2026-07-06T09:51:00+09:00",
        "type":  "offStreet"
    },
    {
        "id":  "sel-0019",
        "name":  "언북초교 공영주차장",
        "district":  "강남구",
        "address":  "서울특별시 강남구 삼성로 135길 42",
        "lat":  37.52012517,
        "lng":  127.0447158,
        "operationHours":  "24시간",
        "fee":  "기본 5분 300원 / 추가 5분당 300원",
        "totalSpaces":  220,
        "availableSpaces":  36,
        "updatedAt":  "2026-07-06T09:47:00+09:00",
        "type":  "offStreet"
    },
    {
        "id":  "sel-0020",
        "name":  "대치동507-3 공영주차장",
        "district":  "강남구",
        "address":  "서울특별시 강남구 삼성로 151길",
        "lat":  37.4933415,
        "lng":  127.0626234,
        "operationHours":  "09:00~19:00",
        "fee":  "기본 5분 300원 / 추가 5분당 300원",
        "totalSpaces":  26,
        "availableSpaces":  18,
        "updatedAt":  "2026-07-06T07:15:00+09:00",
        "type":  "onStreet"
    },
    {
        "id":  "sel-0021",
        "name":  "은마아파트 공영주차장",
        "district":  "강남구",
        "address":  "서울특별시 강남구 삼성로 58길",
        "lat":  37.4990926,
        "lng":  127.0631233,
        "operationHours":  "09:00~19:00",
        "fee":  "기본 5분 300원 / 추가 5분당 300원",
        "totalSpaces":  55,
        "availableSpaces":  49,
        "updatedAt":  "2026-07-06T08:27:00+09:00",
        "type":  "onStreet"
    },
    {
        "id":  "sel-0022",
        "name":  "삼성로별관 부설 공영주차장",
        "district":  "강남구",
        "address":  "서울특별시 강남구 삼성로628",
        "lat":  37.51591066,
        "lng":  127.0521228,
        "operationHours":  "09:00~18:00",
        "fee":  "기본 5분 300원 / 추가 5분당 300원",
        "totalSpaces":  42,
        "availableSpaces":  22,
        "updatedAt":  "2026-07-06T09:14:00+09:00",
        "type":  "offStreet"
    },
    {
        "id":  "sel-0023",
        "name":  "강남치매안심센터 공영주차장",
        "district":  "강남구",
        "address":  "서울특별시 강남구 선릉로 108길 27",
        "lat":  37.5103126,
        "lng":  127.0463796,
        "operationHours":  "24시간",
        "fee":  "기본 5분 400원 / 추가 5분당 400원",
        "totalSpaces":  90,
        "availableSpaces":  32,
        "updatedAt":  "2026-07-06T08:14:00+09:00",
        "type":  "offStreet"
    },
    {
        "id":  "sel-0024",
        "name":  "도곡초교 공영주차장",
        "district":  "강남구",
        "address":  "서울특별시 강남구 선릉로 64길 33",
        "lat":  37.49951141,
        "lng":  127.0544655,
        "operationHours":  "24시간",
        "fee":  "기본 5분 300원 / 추가 5분당 300원",
        "totalSpaces":  195,
        "availableSpaces":  133,
        "updatedAt":  "2026-07-06T09:21:00+09:00",
        "type":  "offStreet"
    },
    {
        "id":  "sel-0025",
        "name":  "선릉로146길 공영주차장",
        "district":  "강남구",
        "address":  "서울특별시 강남구 선릉로 748",
        "lat":  37.52183785,
        "lng":  127.0413577,
        "operationHours":  "10:00~20:00",
        "fee":  "기본 5분 400원 / 추가 5분당 400원",
        "totalSpaces":  30,
        "availableSpaces":  0,
        "updatedAt":  "2026-07-06T08:31:00+09:00",
        "type":  "onStreet"
    },
    {
        "id":  "sel-0026",
        "name":  "선릉로132길 공영주차장",
        "district":  "강남구",
        "address":  "서울특별시 강남구 선릉로132길 12-2",
        "lat":  37.51806116,
        "lng":  127.0419888,
        "operationHours":  "09:00~19:00",
        "fee":  "기본 5분 400원 / 추가 5분당 400원",
        "totalSpaces":  17,
        "availableSpaces":  12,
        "updatedAt":  "2026-07-06T07:15:00+09:00",
        "type":  "onStreet"
    },
    {
        "id":  "sel-0027",
        "name":  "한티역 공영주차장",
        "district":  "강남구",
        "address":  "서울특별시 강남구 선릉로69길+서울특별시 강남구 선릉로 63길+서울특별시 강남구 도곡로57길",
        "lat":  37.4981503,
        "lng":  127.0506429,
        "operationHours":  "09:00~19:00",
        "fee":  "기본 5분 400원 / 추가 5분당 400원",
        "totalSpaces":  33,
        "availableSpaces":  15,
        "updatedAt":  "2026-07-06T08:02:00+09:00",
        "type":  "onStreet"
    },
    {
        "id":  "sel-0028",
        "name":  "압구정428 공영주차장",
        "district":  "강남구",
        "address":  "서울특별시 강남구 압구정로 161",
        "lat":  37.52684175,
        "lng":  127.0270569,
        "operationHours":  "09:00~21:00",
        "fee":  "기본 5분 400원 / 추가 5분당 400원",
        "totalSpaces":  343,
        "availableSpaces":  77,
        "updatedAt":  "2026-07-06T09:13:00+09:00",
        "type":  "offStreet"
    },
    {
        "id":  "sel-0029",
        "name":  "신구초교 공영주차장",
        "district":  "강남구",
        "address":  "서울특별시 강남구 압구정로 18길 28",
        "lat":  37.52336057,
        "lng":  127.0239924,
        "operationHours":  "24시간",
        "fee":  "기본 5분 300원 / 추가 5분당 300원",
        "totalSpaces":  184,
        "availableSpaces":  117,
        "updatedAt":  "2026-07-06T07:20:00+09:00",
        "type":  "offStreet"
    },
    {
        "id":  "sel-0030",
        "name":  "압구정로29길 공영주차장",
        "district":  "강남구",
        "address":  "서울특별시 강남구 압구정로29길",
        "lat":  37.5309168,
        "lng":  127.0271688,
        "operationHours":  "09:00~19:00",
        "fee":  "기본 5분 200원 / 추가 5분당 200원",
        "totalSpaces":  130,
        "availableSpaces":  68,
        "updatedAt":  "2026-07-06T08:19:00+09:00",
        "type":  "onStreet"
    },
    {
        "id":  "sel-0031",
        "name":  "언주로171길 공영주차장",
        "district":  "강남구",
        "address":  "서울특별시 강남구 압구정로36길 17 주변",
        "lat":  37.5277673,
        "lng":  127.032123,
        "operationHours":  "09:00~19:00",
        "fee":  "기본 5분 400원 / 추가 5분당 400원",
        "totalSpaces":  28,
        "availableSpaces":  4,
        "updatedAt":  "2026-07-06T09:46:00+09:00",
        "type":  "onStreet"
    },
    {
        "id":  "sel-0032",
        "name":  "일원1동(기계식) 공영주차장",
        "district":  "강남구",
        "address":  "서울특별시 강남구 양재대로 27길 5",
        "lat":  37.48956502,
        "lng":  127.0817444,
        "operationHours":  "24시간",
        "fee":  "기본 5분 100원 / 추가 5분당 100원",
        "totalSpaces":  66,
        "availableSpaces":  55,
        "updatedAt":  "2026-07-06T08:13:00+09:00",
        "type":  "offStreet"
    },
    {
        "id":  "sel-0033",
        "name":  "구룡산제1호 공영주차장",
        "district":  "강남구",
        "address":  "서울특별시 강남구 양재대로 478",
        "lat":  37.47606527,
        "lng":  127.0672862,
        "operationHours":  "09:00~19:00",
        "fee":  "기본 5분 200원 / 추가 5분당 200원",
        "totalSpaces":  91,
        "availableSpaces":  0,
        "updatedAt":  "2026-07-06T09:51:00+09:00",
        "type":  "offStreet"
    },
    {
        "id":  "sel-0034",
        "name":  "구룡산제2호 공영주차장",
        "district":  "강남구",
        "address":  "서울특별시 강남구 양재대로 478",
        "lat":  37.47606527,
        "lng":  127.0672862,
        "operationHours":  "09:00~19:00",
        "fee":  "기본 5분 200원 / 추가 5분당 200원",
        "totalSpaces":  127,
        "availableSpaces":  90,
        "updatedAt":  "2026-07-06T08:04:00+09:00",
        "type":  "offStreet"
    },
    {
        "id":  "sel-0035",
        "name":  "탄천제2호 공영주차장",
        "district":  "강남구",
        "address":  "서울특별시 강남구 양재대로 55길28",
        "lat":  37.4931481,
        "lng":  127.0877673,
        "operationHours":  "24시간",
        "fee":  "기본 5분 100원 / 추가 5분당 100원",
        "totalSpaces":  322,
        "availableSpaces":  0,
        "updatedAt":  "2026-07-06T09:01:00+09:00",
        "type":  "offStreet"
    },
    {
        "id":  "sel-0036",
        "name":  "언주로147길 공영주차장",
        "district":  "강남구",
        "address":  "서울특별시 강남구 언주로 147길 18 주변",
        "lat":  37.5193644,
        "lng":  127.0323682,
        "operationHours":  "09:00~19:00",
        "fee":  "기본 5분 400원 / 추가 5분당 400원",
        "totalSpaces":  13,
        "availableSpaces":  1,
        "updatedAt":  "2026-07-06T09:49:00+09:00",
        "type":  "onStreet"
    },
    {
        "id":  "sel-0037",
        "name":  "역삼1동문화센터 공영주차장",
        "district":  "강남구",
        "address":  "서울특별시 강남구 역삼로 7길 16",
        "lat":  37.4953545,
        "lng":  127.0332497,
        "operationHours":  "24시간",
        "fee":  "기본 5분 400원 / 추가 5분당 400원",
        "totalSpaces":  118,
        "availableSpaces":  54,
        "updatedAt":  "2026-07-06T09:52:00+09:00",
        "type":  "offStreet"
    },
    {
        "id":  "sel-0038",
        "name":  "대치유수지 공영주차장",
        "district":  "강남구",
        "address":  "서울특별시 강남구 역삼로107길 20-30 외",
        "lat":  37.5052374,
        "lng":  127.0681833,
        "operationHours":  "09:00~19:00",
        "fee":  "기본 5분 200원 / 추가 5분당 200원",
        "totalSpaces":  47,
        "availableSpaces":  30,
        "updatedAt":  "2026-07-06T07:51:00+09:00",
        "type":  "onStreet"
    },
    {
        "id":  "sel-0039",
        "name":  "대치2문화센터 공영주차장",
        "district":  "강남구",
        "address":  "서울특별시 강남구 영동대로 65길 24",
        "lat":  37.50230433,
        "lng":  127.0641674,
        "operationHours":  "24시간",
        "fee":  "기본 5분 300원 / 추가 5분당 300원",
        "totalSpaces":  156,
        "availableSpaces":  47,
        "updatedAt":  "2026-07-06T07:20:00+09:00",
        "type":  "offStreet"
    },
    {
        "id":  "sel-0040",
        "name":  "영동대로96길 공영주차장",
        "district":  "강남구",
        "address":  "서울특별시 강남구 영동대로 96길",
        "lat":  37.5109127,
        "lng":  127.0643199,
        "operationHours":  "09:00~19:00",
        "fee":  "기본 5분 300원 / 추가 5분당 300원",
        "totalSpaces":  35,
        "availableSpaces":  3,
        "updatedAt":  "2026-07-06T09:46:00+09:00",
        "type":  "onStreet"
    },
    {
        "id":  "sel-0041",
        "name":  "영동대로86길 공영주차장",
        "district":  "강남구",
        "address":  "서울특별시 강남구 영동대로86길",
        "lat":  37.5079995,
        "lng":  127.065498,
        "operationHours":  "09:00~19:00",
        "fee":  "기본 5분 400원 / 추가 5분당 400원",
        "totalSpaces":  16,
        "availableSpaces":  14,
        "updatedAt":  "2026-07-06T09:28:00+09:00",
        "type":  "onStreet"
    },
    {
        "id":  "sel-0042",
        "name":  "일원동맛의거리 공영주차장",
        "district":  "강남구",
        "address":  "서울특별시 강남구 일원로 9",
        "lat":  37.504319,
        "lng":  127.0680509,
        "operationHours":  "11:00~21:00",
        "fee":  "기본 5분 100원 / 추가 5분당 100원",
        "totalSpaces":  40,
        "availableSpaces":  9,
        "updatedAt":  "2026-07-06T08:50:00+09:00",
        "type":  "onStreet"
    },
    {
        "id":  "sel-0043",
        "name":  "영희초교 공영주차장",
        "district":  "강남구",
        "address":  "서울특별시 강남구 일원로21",
        "lat":  37.4923004,
        "lng":  127.0811328,
        "operationHours":  "24시간",
        "fee":  "기본 5분 100원 / 추가 5분당 100원",
        "totalSpaces":  184,
        "availableSpaces":  7,
        "updatedAt":  "2026-07-06T08:29:00+09:00",
        "type":  "offStreet"
    },
    {
        "id":  "sel-0044",
        "name":  "테헤란로26길 공영주차장",
        "district":  "강남구",
        "address":  "서울특별시 강남구 테헤란로 152",
        "lat":  37.50002424,
        "lng":  127.0365086,
        "operationHours":  "09:00~19:00",
        "fee":  "기본 5분 400원 / 추가 5분당 400원",
        "totalSpaces":  9,
        "availableSpaces":  7,
        "updatedAt":  "2026-07-06T09:01:00+09:00",
        "type":  "onStreet"
    },
    {
        "id":  "sel-0045",
        "name":  "테헤란로64길 공영주차장",
        "district":  "강남구",
        "address":  "서울특별시 강남구 테헤란로 412 주변",
        "lat":  37.5037597,
        "lng":  127.0512298,
        "operationHours":  "09:00~19:00",
        "fee":  "기본 5분 400원 / 추가 5분당 400원",
        "totalSpaces":  7,
        "availableSpaces":  2,
        "updatedAt":  "2026-07-06T07:22:00+09:00",
        "type":  "onStreet"
    },
    {
        "id":  "sel-0046",
        "name":  "테헤란로69길 공영주차장",
        "district":  "강남구",
        "address":  "서울특별시 강남구 테헤란로 69길",
        "lat":  37.5065829,
        "lng":  127.0525014,
        "operationHours":  "09:00~19:00",
        "fee":  "기본 5분 400원 / 추가 5분당 400원",
        "totalSpaces":  21,
        "availableSpaces":  6,
        "updatedAt":  "2026-07-06T09:17:00+09:00",
        "type":  "onStreet"
    },
    {
        "id":  "sel-0047",
        "name":  "테헤란로78길 공영주차장",
        "district":  "강남구",
        "address":  "서울특별시 강남구 테헤란로78길",
        "lat":  37.5050296,
        "lng":  127.0550466,
        "operationHours":  "09:00~19:00",
        "fee":  "기본 5분 400원 / 추가 5분당 400원",
        "totalSpaces":  10,
        "availableSpaces":  4,
        "updatedAt":  "2026-07-06T09:25:00+09:00",
        "type":  "onStreet"
    },
    {
        "id":  "sel-0048",
        "name":  "역삼문화공원 제1호 공영주차장",
        "district":  "강남구",
        "address":  "서울특별시 강남구 테헤란로7길 21",
        "lat":  37.5009602,
        "lng":  127.0296765,
        "operationHours":  "24시간",
        "fee":  "기본 5분 400원 / 추가 5분당 400원",
        "totalSpaces":  247,
        "availableSpaces":  186,
        "updatedAt":  "2026-07-06T07:32:00+09:00",
        "type":  "offStreet"
    },
    {
        "id":  "sel-0049",
        "name":  "역삼문화공원 제2호 공영주차장",
        "district":  "강남구",
        "address":  "서울특별시 강남구 테헤란로7길 32",
        "lat":  37.50251536,
        "lng":  127.0303909,
        "operationHours":  "24시간",
        "fee":  "기본 5분 300원 / 추가 5분당 300원",
        "totalSpaces":  50,
        "availableSpaces":  20,
        "updatedAt":  "2026-07-06T09:14:00+09:00",
        "type":  "offStreet"
    },
    {
        "id":  "sel-0050",
        "name":  "논현제2호 공영주차장",
        "district":  "강남구",
        "address":  "서울특별시 강남구 학동로 20길 13",
        "lat":  37.5122317,
        "lng":  127.0285547,
        "operationHours":  "24시간",
        "fee":  "기본 5분 400원 / 추가 5분당 400원",
        "totalSpaces":  78,
        "availableSpaces":  0,
        "updatedAt":  "2026-07-06T08:32:00+09:00",
        "type":  "offStreet"
    },
    {
        "id":  "sel-0051",
        "name":  "구청 부설 공영주차장",
        "district":  "강남구",
        "address":  "서울특별시 강남구 학동로426",
        "lat":  37.51796816,
        "lng":  127.0470598,
        "operationHours":  "08:00~19:00",
        "fee":  "기본 5분 300원 / 추가 5분당 300원",
        "totalSpaces":  120,
        "availableSpaces":  51,
        "updatedAt":  "2026-07-06T07:33:00+09:00",
        "type":  "offStreet"
    },
    {
        "id":  "sel-0052",
        "name":  "논현 제1호 공영주차장",
        "district":  "강남구",
        "address":  "서울특별시 강남구 학동로6길 19",
        "lat":  37.510693,
        "lng":  127.0246023,
        "operationHours":  "24시간",
        "fee":  "기본 5분 400원 / 추가 5분당 400원",
        "totalSpaces":  88,
        "availableSpaces":  29,
        "updatedAt":  "2026-07-06T08:39:00+09:00",
        "type":  "offStreet"
    },
    {
        "id":  "sel-0053",
        "name":  "대왕초교 공영주차장",
        "district":  "강남구",
        "address":  "서울특별시 강남구 헌릉로 618길 8",
        "lat":  37.46462117,
        "lng":  127.1055381,
        "operationHours":  "24시간",
        "fee":  "기본 5분 100원 / 추가 5분당 100원",
        "totalSpaces":  101,
        "availableSpaces":  72,
        "updatedAt":  "2026-07-06T07:24:00+09:00",
        "type":  "offStreet"
    },
    {
        "id":  "sel-0054",
        "name":  "헌릉로745길 공영주차장",
        "district":  "강남구",
        "address":  "서울특별시 강남구 헌릉로745길",
        "lat":  37.4698283,
        "lng":  127.1184316,
        "operationHours":  "09:00~19:00",
        "fee":  "기본 5분 300원 / 추가 5분당 300원",
        "totalSpaces":  215,
        "availableSpaces":  0,
        "updatedAt":  "2026-07-06T09:22:00+09:00",
        "type":  "onStreet"
    },
    {
        "id":  "sel-0055",
        "name":  "영동대로106길 공영주차장",
        "district":  "강남구",
        "address":  "서울특별시 강남구영동대로106길 33 주변",
        "lat":  37.5139455,
        "lng":  127.0633953,
        "operationHours":  "09:00~19:00",
        "fee":  "기본 5분 300원 / 추가 5분당 300원",
        "totalSpaces":  19,
        "availableSpaces":  0,
        "updatedAt":  "2026-07-06T08:14:00+09:00",
        "type":  "onStreet"
    },
    {
        "id":  "sel-0056",
        "name":  "암사1동 공영주차장",
        "district":  "강동구",
        "address":  "서울특별시 강동구 고덕로28길 36",
        "lat":  37.55270787,
        "lng":  127.1379968,
        "operationHours":  "24시간",
        "fee":  "기본 5분 150원 / 추가 5분당 150원",
        "totalSpaces":  114,
        "availableSpaces":  73,
        "updatedAt":  "2026-07-06T09:03:00+09:00",
        "type":  "offStreet"
    },
    {
        "id":  "sel-0057",
        "name":  "민속의집 공영주차장",
        "district":  "강동구",
        "address":  "서울특별시 강동구 고덕로83길 55",
        "lat":  37.55974191,
        "lng":  127.1683147,
        "operationHours":  "24시간",
        "fee":  "기본 5분 150원 / 추가 5분당 150원",
        "totalSpaces":  26,
        "availableSpaces":  10,
        "updatedAt":  "2026-07-06T07:34:00+09:00",
        "type":  "offStreet"
    },
    {
        "id":  "sel-0058",
        "name":  "고분다리전통시장 공영주차장",
        "district":  "강동구",
        "address":  "서울특별시 강동구 구천면로 258-6",
        "lat":  37.542977,
        "lng":  127.1322482,
        "operationHours":  "24시간",
        "fee":  "기본 5분 150원 / 추가 5분당 150원",
        "totalSpaces":  26,
        "availableSpaces":  20,
        "updatedAt":  "2026-07-06T08:42:00+09:00",
        "type":  "offStreet"
    },
    {
        "id":  "sel-0059",
        "name":  "명일동 공영주차장",
        "district":  "강동구",
        "address":  "서울특별시 강동구 구천면로 395",
        "lat":  37.55104077,
        "lng":  127.1429044,
        "operationHours":  "24시간",
        "fee":  "기본 5분 250원 / 추가 5분당 250원",
        "totalSpaces":  241,
        "availableSpaces":  171,
        "updatedAt":  "2026-07-06T08:49:00+09:00",
        "type":  "offStreet"
    },
    {
        "id":  "sel-0060",
        "name":  "천호1동 공영주차장",
        "district":  "강동구",
        "address":  "서울특별시 강동구 구천면로42길 60",
        "lat":  37.54498878,
        "lng":  127.1362629,
        "operationHours":  "24시간",
        "fee":  "기본 5분 150원 / 추가 5분당 150원",
        "totalSpaces":  188,
        "availableSpaces":  0,
        "updatedAt":  "2026-07-06T07:12:00+09:00",
        "type":  "offStreet"
    },
    {
        "id":  "sel-0061",
        "name":  "주양쇼핑앞 노상공영주차장",
        "district":  "강동구",
        "address":  "서울특별시 강동구 동남로71길 56",
        "lat":  37.5520141,
        "lng":  127.1529874,
        "operationHours":  "09:00~18:00",
        "fee":  "기본 5분 250원 / 추가 5분당 250원",
        "totalSpaces":  37,
        "availableSpaces":  0,
        "updatedAt":  "2026-07-06T07:08:00+09:00",
        "type":  "onStreet"
    },
    {
        "id":  "sel-0062",
        "name":  "천호유수지 공영주차장",
        "district":  "강동구",
        "address":  "서울특별시 강동구 선사로 70",
        "lat":  37.54478899,
        "lng":  127.1218776,
        "operationHours":  "24시간",
        "fee":  "기본 5분 150원 / 추가 5분당 150원",
        "totalSpaces":  168,
        "availableSpaces":  0,
        "updatedAt":  "2026-07-06T08:19:00+09:00",
        "type":  "offStreet"
    },
    {
        "id":  "sel-0063",
        "name":  "천호3동 제2공영주차장",
        "district":  "강동구",
        "address":  "서울특별시 강동구 성안로31마길 1",
        "lat":  37.54052322,
        "lng":  127.1340815,
        "operationHours":  "24시간",
        "fee":  "기본 5분 150원 / 추가 5분당 150원",
        "totalSpaces":  182,
        "availableSpaces":  169,
        "updatedAt":  "2026-07-06T09:00:00+09:00",
        "type":  "offStreet"
    },
    {
        "id":  "sel-0064",
        "name":  "강일동 공영주차장",
        "district":  "강동구",
        "address":  "서울특별시 강동구 아리수로91길 54",
        "lat":  37.56598207,
        "lng":  127.1722779,
        "operationHours":  "24시간",
        "fee":  "기본 5분 150원 / 추가 5분당 150원",
        "totalSpaces":  90,
        "availableSpaces":  21,
        "updatedAt":  "2026-07-06T07:53:00+09:00",
        "type":  "offStreet"
    },
    {
        "id":  "sel-0065",
        "name":  "암사1동 노상공영주차장",
        "district":  "강동구",
        "address":  "서울특별시 강동구 올림픽로98길 8",
        "lat":  37.55113335,
        "lng":  127.1284388,
        "operationHours":  "10:00~20:00",
        "fee":  "기본 5분 250원 / 추가 5분당 250원",
        "totalSpaces":  19,
        "availableSpaces":  6,
        "updatedAt":  "2026-07-06T09:31:00+09:00",
        "type":  "onStreet"
    },
    {
        "id":  "sel-0066",
        "name":  "천호3동 공영주차장",
        "district":  "강동구",
        "address":  "서울특별시 강동구 진황도로29길 34",
        "lat":  37.53912769,
        "lng":  127.1332691,
        "operationHours":  "24시간",
        "fee":  "기본 5분 150원 / 추가 5분당 150원",
        "totalSpaces":  187,
        "availableSpaces":  150,
        "updatedAt":  "2026-07-06T08:30:00+09:00",
        "type":  "offStreet"
    },
    {
        "id":  "sel-0067",
        "name":  "안말 공영주차장",
        "district":  "강동구",
        "address":  "서울특별시 강동구 풍성로45길 11",
        "lat":  37.53125722,
        "lng":  127.1299156,
        "operationHours":  "24시간",
        "fee":  "기본 5분 150원 / 추가 5분당 150원",
        "totalSpaces":  169,
        "availableSpaces":  0,
        "updatedAt":  "2026-07-06T07:27:00+09:00",
        "type":  "offStreet"
    },
    {
        "id":  "sel-0068",
        "name":  "둔촌역전통시장 공영주차장",
        "district":  "강동구",
        "address":  "서울특별시 강동구 풍성로54길 19",
        "lat":  37.52857832,
        "lng":  127.1337133,
        "operationHours":  "24시간",
        "fee":  "기본 5분 150원 / 추가 5분당 150원",
        "totalSpaces":  18,
        "availableSpaces":  11,
        "updatedAt":  "2026-07-06T08:55:00+09:00",
        "type":  "offStreet"
    },
    {
        "id":  "sel-0069",
        "name":  "아카데미 공영주차장",
        "district":  "강북구",
        "address":  "서울특별시 강북구 4.19로 25",
        "lat":  37.6474065,
        "lng":  127.0113669,
        "operationHours":  "24시간",
        "fee":  "기본 5분 200원 / 추가 5분당 200원",
        "totalSpaces":  37,
        "availableSpaces":  0,
        "updatedAt":  "2026-07-06T08:13:00+09:00",
        "type":  "onStreet"
    },
    {
        "id":  "sel-0070",
        "name":  "수유쌈지 공영주차장",
        "district":  "강북구",
        "address":  "서울특별시 강북구 도봉로 265",
        "lat":  37.6320481,
        "lng":  127.0235551,
        "operationHours":  "24시간",
        "fee":  "기본 5분 250원 / 추가 5분당 250원",
        "totalSpaces":  19,
        "availableSpaces":  9,
        "updatedAt":  "2026-07-06T08:55:00+09:00",
        "type":  "offStreet"
    },
    {
        "id":  "sel-0071",
        "name":  "교육청길 공영주차장",
        "district":  "강북구",
        "address":  "서울특별시 강북구 도봉로20가길 3",
        "lat":  37.6187374,
        "lng":  127.0297161,
        "operationHours":  "24시간",
        "fee":  "기본 5분 200원 / 추가 5분당 200원",
        "totalSpaces":  80,
        "availableSpaces":  0,
        "updatedAt":  "2026-07-06T08:08:00+09:00",
        "type":  "onStreet"
    },
    {
        "id":  "sel-0072",
        "name":  "오패산 공영주차장",
        "district":  "강북구",
        "address":  "서울특별시 강북구 도봉로34길 54",
        "lat":  37.6220897,
        "lng":  127.0311622,
        "operationHours":  "24시간",
        "fee":  "기본 5분 150원 / 추가 5분당 150원",
        "totalSpaces":  76,
        "availableSpaces":  26,
        "updatedAt":  "2026-07-06T07:32:00+09:00",
        "type":  "offStreet"
    },
    {
        "id":  "sel-0073",
        "name":  "미아동 공영주차장",
        "district":  "강북구",
        "address":  "서울특별시 강북구 도봉로61길 46",
        "lat":  37.6285602,
        "lng":  127.0223435,
        "operationHours":  "24시간",
        "fee":  "기본 5분 150원 / 추가 5분당 150원",
        "totalSpaces":  155,
        "availableSpaces":  14,
        "updatedAt":  "2026-07-06T08:38:00+09:00",
        "type":  "offStreet"
    },
    {
        "id":  "sel-0074",
        "name":  "수유마을시장 공영주차장",
        "district":  "강북구",
        "address":  "서울특별시 강북구 도봉로69길 29",
        "lat":  37.6305304,
        "lng":  127.0218524,
        "operationHours":  "24시간",
        "fee":  "기본 5분 150원 / 추가 5분당 150원",
        "totalSpaces":  116,
        "availableSpaces":  18,
        "updatedAt":  "2026-07-06T07:57:00+09:00",
        "type":  "offStreet"
    },
    {
        "id":  "sel-0075",
        "name":  "송중동(임시) 공영주차장",
        "district":  "강북구",
        "address":  "서울특별시 강북구 도봉로8길 67",
        "lat":  37.6112017,
        "lng":  127.0335232,
        "operationHours":  "24시간",
        "fee":  "기본 5분 200원 / 추가 5분당 200원",
        "totalSpaces":  6,
        "availableSpaces":  0,
        "updatedAt":  "2026-07-06T08:33:00+09:00",
        "type":  "offStreet"
    },
    {
        "id":  "sel-0076",
        "name":  "벽산 공영주차장",
        "district":  "강북구",
        "address":  "서울특별시 강북구 삼각산로 140",
        "lat":  37.6409017,
        "lng":  127.0197223,
        "operationHours":  "24시간",
        "fee":  "기본 5분 200원 / 추가 5분당 200원",
        "totalSpaces":  36,
        "availableSpaces":  33,
        "updatedAt":  "2026-07-06T08:58:00+09:00",
        "type":  "onStreet"
    },
    {
        "id":  "sel-0077",
        "name":  "냉천길 공영주차장",
        "district":  "강북구",
        "address":  "서울특별시 강북구 삼양로 230-12",
        "lat":  37.6240065,
        "lng":  127.0195388,
        "operationHours":  "24시간",
        "fee":  "기본 5분 200원 / 추가 5분당 200원",
        "totalSpaces":  104,
        "availableSpaces":  53,
        "updatedAt":  "2026-07-06T09:45:00+09:00",
        "type":  "offStreet"
    },
    {
        "id":  "sel-0078",
        "name":  "교통광장 공영주차장",
        "district":  "강북구",
        "address":  "서울특별시 강북구 삼양로 678",
        "lat":  37.6633705,
        "lng":  127.0126653,
        "operationHours":  "24시간",
        "fee":  "기본 5분 200원 / 추가 5분당 200원",
        "totalSpaces":  158,
        "availableSpaces":  130,
        "updatedAt":  "2026-07-06T07:07:00+09:00",
        "type":  "offStreet"
    },
    {
        "id":  "sel-0079",
        "name":  "가오리 공영주차장",
        "district":  "강북구",
        "address":  "서울특별시 강북구 삼양로107길 30",
        "lat":  37.6416051,
        "lng":  127.0149889,
        "operationHours":  "24시간",
        "fee":  "기본 5분 150원 / 추가 5분당 150원",
        "totalSpaces":  120,
        "availableSpaces":  100,
        "updatedAt":  "2026-07-06T09:11:00+09:00",
        "type":  "offStreet"
    },
    {
        "id":  "sel-0080",
        "name":  "우이동 공영주차장",
        "district":  "강북구",
        "address":  "서울특별시 강북구 삼양로155길 33",
        "lat":  37.6567143,
        "lng":  127.0115891,
        "operationHours":  "24시간",
        "fee":  "기본 5분 150원 / 추가 5분당 150원",
        "totalSpaces":  82,
        "availableSpaces":  51,
        "updatedAt":  "2026-07-06T09:18:00+09:00",
        "type":  "offStreet"
    },
    {
        "id":  "sel-0081",
        "name":  "삼양마을공원 공영주차장",
        "district":  "강북구",
        "address":  "서울특별시 강북구 삼양로47길 15",
        "lat":  37.622899,
        "lng":  127.0182175,
        "operationHours":  "24시간",
        "fee":  "기본 5분 200원 / 추가 5분당 200원",
        "totalSpaces":  95,
        "availableSpaces":  35,
        "updatedAt":  "2026-07-06T08:00:00+09:00",
        "type":  "offStreet"
    },
    {
        "id":  "sel-0082",
        "name":  "큰마을길 공영주차장",
        "district":  "강북구",
        "address":  "서울특별시 강북구 삼양로54길 133",
        "lat":  37.6236738,
        "lng":  127.0252208,
        "operationHours":  "24시간",
        "fee":  "기본 5분 200원 / 추가 5분당 200원",
        "totalSpaces":  41,
        "availableSpaces":  18,
        "updatedAt":  "2026-07-06T09:37:00+09:00",
        "type":  "onStreet"
    },
    {
        "id":  "sel-0083",
        "name":  "은혜 공영주차장",
        "district":  "강북구",
        "address":  "서울특별시 강북구 삼양로67길 16",
        "lat":  37.6279612,
        "lng":  127.0169821,
        "operationHours":  "24시간",
        "fee":  "기본 5분 150원 / 추가 5분당 150원",
        "totalSpaces":  20,
        "availableSpaces":  8,
        "updatedAt":  "2026-07-06T07:51:00+09:00",
        "type":  "offStreet"
    },
    {
        "id":  "sel-0084",
        "name":  "수유일공원 공영주차장",
        "district":  "강북구",
        "address":  "서울특별시 강북구 삼양로79길 5",
        "lat":  37.6306612,
        "lng":  127.0174444,
        "operationHours":  "24시간",
        "fee":  "기본 5분 200원 / 추가 5분당 200원",
        "totalSpaces":  91,
        "availableSpaces":  25,
        "updatedAt":  "2026-07-06T08:21:00+09:00",
        "type":  "offStreet"
    },
    {
        "id":  "sel-0085",
        "name":  "색동공원 공영주차장",
        "district":  "강북구",
        "address":  "서울특별시 강북구 삼양로80나길 56",
        "lat":  37.6333382,
        "lng":  127.0206239,
        "operationHours":  "24시간",
        "fee":  "기본 5분 200원 / 추가 5분당 200원",
        "totalSpaces":  80,
        "availableSpaces":  49,
        "updatedAt":  "2026-07-06T08:03:00+09:00",
        "type":  "offStreet"
    },
    {
        "id":  "sel-0086",
        "name":  "인수동 공영주차장",
        "district":  "강북구",
        "address":  "서울특별시 강북구 삼양로92길 34",
        "lat":  37.6361708,
        "lng":  127.0185347,
        "operationHours":  "24시간",
        "fee":  "기본 5분 200원 / 추가 5분당 200원",
        "totalSpaces":  73,
        "availableSpaces":  48,
        "updatedAt":  "2026-07-06T08:04:00+09:00",
        "type":  "offStreet"
    },
    {
        "id":  "sel-0087",
        "name":  "청암 공영주차장",
        "district":  "강북구",
        "address":  "서울특별시 강북구 솔매로22가길 20",
        "lat":  37.6247155,
        "lng":  127.0154205,
        "operationHours":  "24시간",
        "fee":  "기본 5분 150원 / 추가 5분당 150원",
        "totalSpaces":  47,
        "availableSpaces":  0,
        "updatedAt":  "2026-07-06T09:24:00+09:00",
        "type":  "offStreet"
    },
    {
        "id":  "sel-0088",
        "name":  "삼양시장길 공영주차장",
        "district":  "강북구",
        "address":  "서울특별시 강북구 솔매로7가길 33",
        "lat":  37.6258661,
        "lng":  127.015692,
        "operationHours":  "24시간",
        "fee":  "기본 5분 150원 / 추가 5분당 150원",
        "totalSpaces":  43,
        "availableSpaces":  38,
        "updatedAt":  "2026-07-06T09:45:00+09:00",
        "type":  "offStreet"
    },
    {
        "id":  "sel-0089",
        "name":  "대지시장길 공영주차장",
        "district":  "강북구",
        "address":  "서울특별시 강북구 솔샘로 243-8",
        "lat":  37.6201434,
        "lng":  127.0202413,
        "operationHours":  "24시간",
        "fee":  "기본 5분 200원 / 추가 5분당 200원",
        "totalSpaces":  47,
        "availableSpaces":  20,
        "updatedAt":  "2026-07-06T09:33:00+09:00",
        "type":  "offStreet"
    },
    {
        "id":  "sel-0090",
        "name":  "으뜸공원(무인) 공영주차장",
        "district":  "강북구",
        "address":  "서울특별시 강북구 솔샘로 67",
        "lat":  37.620006,
        "lng":  127.0285111,
        "operationHours":  "24시간",
        "fee":  "기본 5분 200원 / 추가 5분당 200원",
        "totalSpaces":  76,
        "availableSpaces":  47,
        "updatedAt":  "2026-07-06T07:15:00+09:00",
        "type":  "onStreet"
    },
    {
        "id":  "sel-0091",
        "name":  "빨래골 공영주차장",
        "district":  "강북구",
        "address":  "서울특별시 강북구 수유로 30",
        "lat":  37.6334583,
        "lng":  127.0193948,
        "operationHours":  "24시간",
        "fee":  "기본 5분 200원 / 추가 5분당 200원",
        "totalSpaces":  35,
        "availableSpaces":  15,
        "updatedAt":  "2026-07-06T08:33:00+09:00",
        "type":  "onStreet"
    },
    {
        "id":  "sel-0092",
        "name":  "나눔터길 공영주차장",
        "district":  "강북구",
        "address":  "서울특별시 강북구 수유로 47",
        "lat":  37.6351482,
        "lng":  127.0191574,
        "operationHours":  "24시간",
        "fee":  "기본 5분 200원 / 추가 5분당 200원",
        "totalSpaces":  48,
        "availableSpaces":  36,
        "updatedAt":  "2026-07-06T08:20:00+09:00",
        "type":  "onStreet"
    },
    {
        "id":  "sel-0093",
        "name":  "어울림소공원 공영주차장",
        "district":  "강북구",
        "address":  "서울특별시 강북구 오현로 56",
        "lat":  37.6184131,
        "lng":  127.0364771,
        "operationHours":  "24시간",
        "fee":  "기본 5분 200원 / 추가 5분당 200원",
        "totalSpaces":  45,
        "availableSpaces":  42,
        "updatedAt":  "2026-07-06T07:17:00+09:00",
        "type":  "offStreet"
    },
    {
        "id":  "sel-0094",
        "name":  "번2동 공영주차장",
        "district":  "강북구",
        "address":  "서울특별시 강북구 오현로21길 6",
        "lat":  37.6267046,
        "lng":  127.0365901,
        "operationHours":  "24시간",
        "fee":  "기본 5분 150원 / 추가 5분당 150원",
        "totalSpaces":  20,
        "availableSpaces":  5,
        "updatedAt":  "2026-07-06T09:41:00+09:00",
        "type":  "offStreet"
    },
    {
        "id":  "sel-0095",
        "name":  "번동햇살 공영주차장",
        "district":  "강북구",
        "address":  "서울특별시 강북구 오현로21길 84",
        "lat":  37.6251004,
        "lng":  127.0334059,
        "operationHours":  "24시간",
        "fee":  "기본 5분 150원 / 추가 5분당 150원",
        "totalSpaces":  187,
        "availableSpaces":  61,
        "updatedAt":  "2026-07-06T08:53:00+09:00",
        "type":  "offStreet"
    },
    {
        "id":  "sel-0096",
        "name":  "송중동 공영주차장",
        "district":  "강북구",
        "address":  "서울특별시 강북구 월계로7길 36",
        "lat":  37.6116327,
        "lng":  127.0335871,
        "operationHours":  "24시간",
        "fee":  "기본 5분 200원 / 추가 5분당 200원",
        "totalSpaces":  54,
        "availableSpaces":  14,
        "updatedAt":  "2026-07-06T08:44:00+09:00",
        "type":  "offStreet"
    },
    {
        "id":  "sel-0097",
        "name":  "구세군길 공영주차장",
        "district":  "강북구",
        "address":  "서울특별시 강북구 인수봉로20가길 21",
        "lat":  37.6260722,
        "lng":  127.0134696,
        "operationHours":  "24시간",
        "fee":  "기본 5분 150원 / 추가 5분당 150원",
        "totalSpaces":  87,
        "availableSpaces":  0,
        "updatedAt":  "2026-07-06T07:01:00+09:00",
        "type":  "offStreet"
    },
    {
        "id":  "sel-0098",
        "name":  "미양마을마당 공영주차장",
        "district":  "강북구",
        "address":  "서울특별시 강북구 인수봉로6길 39",
        "lat":  37.6220890906,
        "lng":  127.0150104475,
        "operationHours":  "24시간",
        "fee":  "기본 5분 200원 / 추가 5분당 200원",
        "totalSpaces":  10,
        "availableSpaces":  5,
        "updatedAt":  "2026-07-06T07:41:00+09:00",
        "type":  "offStreet"
    },
    {
        "id":  "sel-0099",
        "name":  "장미원시장 공영주차장",
        "district":  "강북구",
        "address":  "서울특별시 강북구 인수봉로78길 24",
        "lat":  37.64414204,
        "lng":  127.0124546,
        "operationHours":  "24시간",
        "fee":  "기본 5분 150원 / 추가 5분당 150원",
        "totalSpaces":  152,
        "availableSpaces":  70,
        "updatedAt":  "2026-07-06T08:26:00+09:00",
        "type":  "offStreet"
    },
    {
        "id":  "sel-0100",
        "name":  "수송초등학교 공영주차장",
        "district":  "강북구",
        "address":  "서울특별시 강북구 한천로124길 14",
        "lat":  37.637324,
        "lng":  127.0332067,
        "operationHours":  "24시간",
        "fee":  "기본 5분 200원 / 추가 5분당 200원",
        "totalSpaces":  185,
        "availableSpaces":  106,
        "updatedAt":  "2026-07-06T07:19:00+09:00",
        "type":  "offStreet"
    },
    {
        "id":  "sel-0101",
        "name":  "시범 공영주차장",
        "district":  "강북구",
        "address":  "서울특별시 강북구 한천로139가길 10",
        "lat":  37.6399548,
        "lng":  127.0257737,
        "operationHours":  "24시간",
        "fee":  "기본 5분 250원 / 추가 5분당 250원",
        "totalSpaces":  45,
        "availableSpaces":  14,
        "updatedAt":  "2026-07-06T09:56:00+09:00",
        "type":  "offStreet"
    },
    {
        "id":  "sel-0102",
        "name":  "가오천 공영주차장",
        "district":  "강북구",
        "address":  "서울특별시 강북구 한천로150길 46",
        "lat":  37.6436141,
        "lng":  127.0251254,
        "operationHours":  "24시간",
        "fee":  "기본 5분 200원 / 추가 5분당 200원",
        "totalSpaces":  60,
        "availableSpaces":  9,
        "updatedAt":  "2026-07-06T07:09:00+09:00",
        "type":  "onStreet"
    },
    {
        "id":  "sel-0103",
        "name":  "수유2동 공영주차장",
        "district":  "강북구",
        "address":  "서울특별시 강북구 한천로160길 40",
        "lat":  37.6460297,
        "lng":  127.0218735,
        "operationHours":  "24시간",
        "fee":  "기본 5분 150원 / 추가 5분당 150원",
        "totalSpaces":  62,
        "availableSpaces":  59,
        "updatedAt":  "2026-07-06T07:50:00+09:00",
        "type":  "offStreet"
    },
    {
        "id":  "sel-0104",
        "name":  "화곡2-1 공영주차장",
        "district":  "강서구",
        "address":  "서울특별시 강서구 강서로18아길 26-15",
        "lat":  37.536046,
        "lng":  126.852432,
        "operationHours":  "24시간",
        "fee":  "기본 5분 50원 / 추가 5분당 50원",
        "totalSpaces":  58,
        "availableSpaces":  0,
        "updatedAt":  "2026-07-06T09:39:00+09:00",
        "type":  "offStreet"
    },
    {
        "id":  "sel-0105",
        "name":  "화곡5-2 공영주차장",
        "district":  "강서구",
        "address":  "서울특별시 강서구 강서로34길 41-21",
        "lat":  37.544352,
        "lng":  126.840763,
        "operationHours":  "24시간",
        "fee":  "기본 5분 50원 / 추가 5분당 50원",
        "totalSpaces":  27,
        "availableSpaces":  0,
        "updatedAt":  "2026-07-06T08:44:00+09:00",
        "type":  "offStreet"
    },
    {
        "id":  "sel-0106",
        "name":  "화곡5-1 공영주차장",
        "district":  "강서구",
        "address":  "서울특별시 강서구 강서로36길 21",
        "lat":  37.5438705,
        "lng":  126.839922,
        "operationHours":  "24시간",
        "fee":  "기본 5분 50원 / 추가 5분당 50원",
        "totalSpaces":  26,
        "availableSpaces":  22,
        "updatedAt":  "2026-07-06T08:59:00+09:00",
        "type":  "offStreet"
    },
    {
        "id":  "sel-0107",
        "name":  "곰달래문화복지센터 공영주차장",
        "district":  "강서구",
        "address":  "서울특별시 강서구 강서로5길 50",
        "lat":  37.52906,
        "lng":  126.848898,
        "operationHours":  "24시간",
        "fee":  "기본 5분 100원 / 추가 5분당 100원",
        "totalSpaces":  252,
        "availableSpaces":  6,
        "updatedAt":  "2026-07-06T07:06:00+09:00",
        "type":  "offStreet"
    },
    {
        "id":  "sel-0108",
        "name":  "화곡1동 배다리서길 공영주차장",
        "district":  "강서구",
        "address":  "서울특별시 강서구 강서로5나길 6",
        "lat":  37.528779,
        "lng":  126.847886,
        "operationHours":  "09:00~19:00",
        "fee":  "기본 5분 200원 / 추가 5분당 200원",
        "totalSpaces":  249,
        "availableSpaces":  174,
        "updatedAt":  "2026-07-06T08:13:00+09:00",
        "type":  "onStreet"
    },
    {
        "id":  "sel-0109",
        "name":  "화곡1-1 공영주차장",
        "district":  "강서구",
        "address":  "서울특별시 강서구 곰달래로15길 28",
        "lat":  37.5314204,
        "lng":  126.839874,
        "operationHours":  "24시간",
        "fee":  "기본 5분 50원 / 추가 5분당 50원",
        "totalSpaces":  99,
        "availableSpaces":  63,
        "updatedAt":  "2026-07-06T09:10:00+09:00",
        "type":  "offStreet"
    },
    {
        "id":  "sel-0110",
        "name":  "화곡4-1 공영주차장",
        "district":  "강서구",
        "address":  "서울특별시 강서구 곰달래로57가길 20",
        "lat":  37.534301,
        "lng":  126.861044,
        "operationHours":  "24시간",
        "fee":  "기본 5분 50원 / 추가 5분당 50원",
        "totalSpaces":  202,
        "availableSpaces":  174,
        "updatedAt":  "2026-07-06T09:31:00+09:00",
        "type":  "offStreet"
    },
    {
        "id":  "sel-0111",
        "name":  "등촌3동 꿈나무길 공영주차장",
        "district":  "강서구",
        "address":  "서울특별시 강서구 공항대로 351-21",
        "lat":  37.560599,
        "lng":  126.847619,
        "operationHours":  "09:00~19:00",
        "fee":  "기본 5분 250원 / 추가 5분당 250원",
        "totalSpaces":  60,
        "availableSpaces":  34,
        "updatedAt":  "2026-07-06T07:30:00+09:00",
        "type":  "onStreet"
    },
    {
        "id":  "sel-0112",
        "name":  "등촌3동 구암길 공영주차장",
        "district":  "강서구",
        "address":  "서울특별시 강서구 공항대로39길 74",
        "lat":  37.561217,
        "lng":  126.844636,
        "operationHours":  "09:00~19:00",
        "fee":  "기본 5분 250원 / 추가 5분당 250원",
        "totalSpaces":  49,
        "availableSpaces":  12,
        "updatedAt":  "2026-07-06T07:47:00+09:00",
        "type":  "onStreet"
    },
    {
        "id":  "sel-0113",
        "name":  "화곡6동 방죽길 공영주차장",
        "district":  "강서구",
        "address":  "서울특별시 강서구 공항대로46길 35",
        "lat":  37.554165,
        "lng":  126.8524896,
        "operationHours":  "09:00~19:00",
        "fee":  "기본 5분 250원 / 추가 5분당 250원",
        "totalSpaces":  47,
        "availableSpaces":  6,
        "updatedAt":  "2026-07-06T09:31:00+09:00",
        "type":  "onStreet"
    },
    {
        "id":  "sel-0114",
        "name":  "화곡2,4,8동 배다리동길 공영주차장",
        "district":  "강서구",
        "address":  "서울특별시 강서구 국회대로7길 196",
        "lat":  37.529024,
        "lng":  126.849947,
        "operationHours":  "09:00~19:00",
        "fee":  "기본 5분 200원 / 추가 5분당 200원",
        "totalSpaces":  304,
        "availableSpaces":  141,
        "updatedAt":  "2026-07-06T09:44:00+09:00",
        "type":  "onStreet"
    },
    {
        "id":  "sel-0115",
        "name":  "볏골공원 공영주차장",
        "district":  "강서구",
        "address":  "서울특별시 강서구 까치산로4길 22",
        "lat":  37.541816,
        "lng":  126.844323,
        "operationHours":  "24시간",
        "fee":  "기본 5분 100원 / 추가 5분당 100원",
        "totalSpaces":  228,
        "availableSpaces":  162,
        "updatedAt":  "2026-07-06T08:55:00+09:00",
        "type":  "offStreet"
    },
    {
        "id":  "sel-0116",
        "name":  "등촌2-1 공영주차장",
        "district":  "강서구",
        "address":  "서울특별시 강서구 등촌로55길 33-16",
        "lat":  37.549799,
        "lng":  126.861316,
        "operationHours":  "24시간",
        "fee":  "기본 5분 50원 / 추가 5분당 50원",
        "totalSpaces":  110,
        "availableSpaces":  48,
        "updatedAt":  "2026-07-06T09:12:00+09:00",
        "type":  "offStreet"
    },
    {
        "id":  "sel-0117",
        "name":  "마곡안전체험관 공영주차장",
        "district":  "강서구",
        "address":  "서울특별시 강서구 마곡중앙로 13",
        "lat":  37.5545411,
        "lng":  126.8258394,
        "operationHours":  "24시간",
        "fee":  "기본 5분 100원 / 추가 5분당 100원",
        "totalSpaces":  36,
        "availableSpaces":  14,
        "updatedAt":  "2026-07-06T07:08:00+09:00",
        "type":  "offStreet"
    },
    {
        "id":  "sel-0118",
        "name":  "화곡6-1 공영주차장",
        "district":  "강서구",
        "address":  "서울특별시 강서구 우장산로 114",
        "lat":  37.553032,
        "lng":  126.848514,
        "operationHours":  "24시간",
        "fee":  "기본 5분 100원 / 추가 5분당 100원",
        "totalSpaces":  298,
        "availableSpaces":  161,
        "updatedAt":  "2026-07-06T09:46:00+09:00",
        "type":  "offStreet"
    },
    {
        "id":  "sel-0119",
        "name":  "화곡1동 달구지길 공영주차장",
        "district":  "강서구",
        "address":  "서울특별시 강서구 월정로28길 14",
        "lat":  37.532988,
        "lng":  126.837414,
        "operationHours":  "09:00~19:00",
        "fee":  "기본 5분 250원 / 추가 5분당 250원",
        "totalSpaces":  29,
        "availableSpaces":  14,
        "updatedAt":  "2026-07-06T09:28:00+09:00",
        "type":  "onStreet"
    },
    {
        "id":  "sel-0120",
        "name":  "화곡7-1 공영주차장",
        "district":  "강서구",
        "address":  "서울특별시 강서구 월정로32길 68",
        "lat":  37.536016,
        "lng":  126.839155,
        "operationHours":  "24시간",
        "fee":  "기본 5분 50원 / 추가 5분당 50원",
        "totalSpaces":  86,
        "availableSpaces":  29,
        "updatedAt":  "2026-07-06T08:15:00+09:00",
        "type":  "offStreet"
    },
    {
        "id":  "sel-0121",
        "name":  "화곡8-2 공영주차장",
        "district":  "강서구",
        "address":  "서울특별시 강서구 초록마을로 126",
        "lat":  37.537679,
        "lng":  126.850354,
        "operationHours":  "24시간",
        "fee":  "기본 5분 50원 / 추가 5분당 50원",
        "totalSpaces":  109,
        "availableSpaces":  74,
        "updatedAt":  "2026-07-06T07:56:00+09:00",
        "type":  "offStreet"
    },
    {
        "id":  "sel-0122",
        "name":  "화곡8-1 공영주차장",
        "district":  "강서구",
        "address":  "서울특별시 강서구 초록마을로22길 57-11",
        "lat":  37.538511,
        "lng":  126.84884,
        "operationHours":  "24시간",
        "fee":  "기본 5분 50원 / 추가 5분당 50원",
        "totalSpaces":  59,
        "availableSpaces":  21,
        "updatedAt":  "2026-07-06T08:49:00+09:00",
        "type":  "offStreet"
    },
    {
        "id":  "sel-0123",
        "name":  "화곡본-1 공영주차장",
        "district":  "강서구",
        "address":  "서울특별시 강서구 초록마을로26길 48",
        "lat":  37.539744,
        "lng":  126.849772,
        "operationHours":  "24시간",
        "fee":  "기본 5분 50원 / 추가 5분당 50원",
        "totalSpaces":  98,
        "availableSpaces":  73,
        "updatedAt":  "2026-07-06T07:58:00+09:00",
        "type":  "offStreet"
    },
    {
        "id":  "sel-0124",
        "name":  "화곡본-2 공영주차장",
        "district":  "강서구",
        "address":  "서울특별시 강서구 초록마을로5길 43",
        "lat":  37.5443203,
        "lng":  126.848448,
        "operationHours":  "24시간",
        "fee":  "기본 5분 50원 / 추가 5분당 50원",
        "totalSpaces":  100,
        "availableSpaces":  56,
        "updatedAt":  "2026-07-06T08:23:00+09:00",
        "type":  "offStreet"
    },
    {
        "id":  "sel-0125",
        "name":  "화곡6동 신학대길 공영주차장",
        "district":  "강서구",
        "address":  "서울특별시 강서구 화곡로 302",
        "lat":  37.550966,
        "lng":  126.849532,
        "operationHours":  "09:00~19:00",
        "fee":  "기본 5분 250원 / 추가 5분당 250원",
        "totalSpaces":  29,
        "availableSpaces":  24,
        "updatedAt":  "2026-07-06T07:03:00+09:00",
        "type":  "onStreet"
    },
    {
        "id":  "sel-0126",
        "name":  "화곡3-1 공영주차장",
        "district":  "강서구",
        "address":  "서울특별시 강서구 화곡로15길 40",
        "lat":  37.541769,
        "lng":  126.834727,
        "operationHours":  "24시간",
        "fee":  "기본 5분 50원 / 추가 5분당 50원",
        "totalSpaces":  99,
        "availableSpaces":  61,
        "updatedAt":  "2026-07-06T07:33:00+09:00",
        "type":  "offStreet"
    },
    {
        "id":  "sel-0127",
        "name":  "화곡5-3 공영주차장",
        "district":  "강서구",
        "address":  "서울특별시 강서구 화곡로27가길 38",
        "lat":  37.543454,
        "lng":  126.842258,
        "operationHours":  "24시간",
        "fee":  "기본 5분 50원 / 추가 5분당 50원",
        "totalSpaces":  13,
        "availableSpaces":  0,
        "updatedAt":  "2026-07-06T09:02:00+09:00",
        "type":  "offStreet"
    },
    {
        "id":  "sel-0128",
        "name":  "등서초 공영주차장",
        "district":  "강서구",
        "address":  "서울특별시 강서구 화곡로58길 86",
        "lat":  37.551884,
        "lng":  126.855038,
        "operationHours":  "24시간",
        "fee":  "기본 5분 50원 / 추가 5분당 50원",
        "totalSpaces":  32,
        "availableSpaces":  27,
        "updatedAt":  "2026-07-06T09:42:00+09:00",
        "type":  "offStreet"
    },
    {
        "id":  "sel-0129",
        "name":  "모래내공원공영주차장",
        "district":  "관악구",
        "address":  "서울특별시 관악구 관악로12길 55",
        "lat":  37.4779002115,
        "lng":  126.9554032,
        "operationHours":  "24시간",
        "fee":  "기본 2분 250원",
        "totalSpaces":  72,
        "availableSpaces":  44,
        "updatedAt":  "2026-07-06T07:17:00+09:00",
        "type":  "offStreet"
    },
    {
        "id":  "sel-0130",
        "name":  "신림동제1공영주차장",
        "district":  "관악구",
        "address":  "서울특별시 관악구 관천로 98",
        "lat":  37.487364,
        "lng":  126.923465,
        "operationHours":  "24시간",
        "fee":  "기본 5분 250원",
        "totalSpaces":  187,
        "availableSpaces":  21,
        "updatedAt":  "2026-07-06T07:01:00+09:00",
        "type":  "offStreet"
    },
    {
        "id":  "sel-0131",
        "name":  "은천동공영주차장",
        "district":  "관악구",
        "address":  "서울특별시 관악구 국회단지4길 32",
        "lat":  37.48705374,
        "lng":  126.9415965,
        "operationHours":  "24시간",
        "fee":  "기본 5분 150원",
        "totalSpaces":  21,
        "availableSpaces":  9,
        "updatedAt":  "2026-07-06T09:32:00+09:00",
        "type":  "offStreet"
    },
    {
        "id":  "sel-0132",
        "name":  "낙성대제3공영주차장",
        "district":  "관악구",
        "address":  "서울특별시 관악구 낙성대역6길 20",
        "lat":  37.47433551,
        "lng":  126.9617961,
        "operationHours":  "24시간",
        "fee":  "요금 정보 없음",
        "totalSpaces":  6,
        "availableSpaces":  4,
        "updatedAt":  "2026-07-06T09:40:00+09:00",
        "type":  "offStreet"
    },
    {
        "id":  "sel-0133",
        "name":  "난우중공영주차장",
        "district":  "관악구",
        "address":  "서울특별시 관악구 난곡로 16길 32",
        "lat":  37.466806,
        "lng":  126.9228283,
        "operationHours":  "24시간",
        "fee":  "요금 정보 없음",
        "totalSpaces":  71,
        "availableSpaces":  33,
        "updatedAt":  "2026-07-06T07:21:00+09:00",
        "type":  "offStreet"
    },
    {
        "id":  "sel-0134",
        "name":  "난곡동제1공영주차장",
        "district":  "관악구",
        "address":  "서울특별시 관악구 난곡로 34길 71",
        "lat":  37.47221023,
        "lng":  126.9231529,
        "operationHours":  "24시간",
        "fee":  "기본 5분 50원",
        "totalSpaces":  119,
        "availableSpaces":  98,
        "updatedAt":  "2026-07-06T07:14:00+09:00",
        "type":  "offStreet"
    },
    {
        "id":  "sel-0135",
        "name":  "난곡마당공영주차장",
        "district":  "관악구",
        "address":  "서울특별시 관악구 난곡로24바길 16",
        "lat":  37.46754161,
        "lng":  126.9225532,
        "operationHours":  "24시간",
        "fee":  "요금 정보 없음",
        "totalSpaces":  41,
        "availableSpaces":  0,
        "updatedAt":  "2026-07-06T08:22:00+09:00",
        "type":  "offStreet"
    },
    {
        "id":  "sel-0136",
        "name":  "난곡스마트공영주차장",
        "district":  "관악구",
        "address":  "서울특별시 관악구 난곡로26길 94",
        "lat":  37.46906095,
        "lng":  126.9242983,
        "operationHours":  "24시간",
        "fee":  "기본 5분 50원",
        "totalSpaces":  117,
        "availableSpaces":  0,
        "updatedAt":  "2026-07-06T08:26:00+09:00",
        "type":  "offStreet"
    },
    {
        "id":  "sel-0137",
        "name":  "난곡동제2공영주차장",
        "district":  "관악구",
        "address":  "서울특별시 관악구 난곡로31길 45",
        "lat":  37.47016608,
        "lng":  126.9178922,
        "operationHours":  "24시간",
        "fee":  "요금 정보 없음",
        "totalSpaces":  6,
        "availableSpaces":  4,
        "updatedAt":  "2026-07-06T08:53:00+09:00",
        "type":  "offStreet"
    },
    {
        "id":  "sel-0138",
        "name":  "미성동제3공영주차장",
        "district":  "관악구",
        "address":  "서울특별시 관악구 난곡로41길 12",
        "lat":  37.47565502,
        "lng":  126.9157498,
        "operationHours":  "24시간",
        "fee":  "요금 정보 없음",
        "totalSpaces":  15,
        "availableSpaces":  12,
        "updatedAt":  "2026-07-06T07:07:00+09:00",
        "type":  "offStreet"
    },
    {
        "id":  "sel-0139",
        "name":  "미성동제2공영주차장",
        "district":  "관악구",
        "address":  "서울특별시 관악구 난곡로63가길 30",
        "lat":  37.4797444,
        "lng":  126.9141902,
        "operationHours":  "24시간",
        "fee":  "요금 정보 없음",
        "totalSpaces":  21,
        "availableSpaces":  5,
        "updatedAt":  "2026-07-06T07:04:00+09:00",
        "type":  "offStreet"
    },
    {
        "id":  "sel-0140",
        "name":  "미성동제1공영주차장",
        "district":  "관악구",
        "address":  "서울특별시 관악구 난곡로64가길 39",
        "lat":  37.47957874,
        "lng":  126.9157042,
        "operationHours":  "24시간",
        "fee":  "요금 정보 없음",
        "totalSpaces":  5,
        "availableSpaces":  0,
        "updatedAt":  "2026-07-06T07:07:00+09:00",
        "type":  "offStreet"
    },
    {
        "id":  "sel-0141",
        "name":  "미성동제4공영주차장",
        "district":  "관악구",
        "address":  "서울특별시 관악구 난우10가길 2",
        "lat":  37.476383,
        "lng":  126.919922,
        "operationHours":  "24시간",
        "fee":  "요금 정보 없음",
        "totalSpaces":  79,
        "availableSpaces":  54,
        "updatedAt":  "2026-07-06T07:25:00+09:00",
        "type":  "offStreet"
    },
    {
        "id":  "sel-0142",
        "name":  "난향공영주차장",
        "district":  "관악구",
        "address":  "서울특별시 관악구 난향7길 14",
        "lat":  37.46205365,
        "lng":  126.9155924,
        "operationHours":  "24시간",
        "fee":  "요금 정보 없음",
        "totalSpaces":  22,
        "availableSpaces":  12,
        "updatedAt":  "2026-07-06T07:57:00+09:00",
        "type":  "offStreet"
    },
    {
        "id":  "sel-0143",
        "name":  "난향동제1공영주차장",
        "district":  "관악구",
        "address":  "서울특별시 관악구 난향9길 73",
        "lat":  37.45997373,
        "lng":  126.9150699,
        "operationHours":  "24시간",
        "fee":  "요금 정보 없음",
        "totalSpaces":  12,
        "availableSpaces":  1,
        "updatedAt":  "2026-07-06T08:22:00+09:00",
        "type":  "offStreet"
    },
    {
        "id":  "sel-0144",
        "name":  "신사동제1공영주차장",
        "district":  "관악구",
        "address":  "서울특별시 관악구 남부순환로 153길 51",
        "lat":  37.48444806,
        "lng":  126.915444,
        "operationHours":  "09:00~16:00",
        "fee":  "기본 5분 50원",
        "totalSpaces":  41,
        "availableSpaces":  0,
        "updatedAt":  "2026-07-06T07:49:00+09:00",
        "type":  "offStreet"
    },
    {
        "id":  "sel-0145",
        "name":  "신사동제3공영주차장",
        "district":  "관악구",
        "address":  "서울특별시 관악구 남부순환로155길 22",
        "lat":  37.48397331,
        "lng":  126.9179928,
        "operationHours":  "24시간",
        "fee":  "요금 정보 없음",
        "totalSpaces":  12,
        "availableSpaces":  7,
        "updatedAt":  "2026-07-06T08:25:00+09:00",
        "type":  "offStreet"
    },
    {
        "id":  "sel-0146",
        "name":  "신사동제2공영주차장",
        "district":  "관악구",
        "address":  "서울특별시 관악구 남부순환로159길 11",
        "lat":  37.48388151,
        "lng":  126.9199755,
        "operationHours":  "24시간",
        "fee":  "요금 정보 없음",
        "totalSpaces":  18,
        "availableSpaces":  17,
        "updatedAt":  "2026-07-06T09:55:00+09:00",
        "type":  "offStreet"
    },
    {
        "id":  "sel-0147",
        "name":  "남부초공영주차장",
        "district":  "관악구",
        "address":  "서울특별시 관악구 남부순환로163길 14",
        "lat":  37.485119,
        "lng":  126.922184,
        "operationHours":  "24시간",
        "fee":  "기본 5분 150원",
        "totalSpaces":  134,
        "availableSpaces":  34,
        "updatedAt":  "2026-07-06T09:03:00+09:00",
        "type":  "offStreet"
    },
    {
        "id":  "sel-0148",
        "name":  "신원동제1공영주차장",
        "district":  "관악구",
        "address":  "서울특별시 관악구 남부순환로172길 13",
        "lat":  37.48306952,
        "lng":  126.9252104,
        "operationHours":  "24시간",
        "fee":  "요금 정보 없음",
        "totalSpaces":  23,
        "availableSpaces":  17,
        "updatedAt":  "2026-07-06T07:57:00+09:00",
        "type":  "offStreet"
    },
    {
        "id":  "sel-0149",
        "name":  "남현소공원공영주차장",
        "district":  "관악구",
        "address":  "서울특별시 관악구 남현1길 28",
        "lat":  37.47567778,
        "lng":  126.9792771,
        "operationHours":  "24시간",
        "fee":  "기본 5분 400원",
        "totalSpaces":  97,
        "availableSpaces":  18,
        "updatedAt":  "2026-07-06T09:13:00+09:00",
        "type":  "offStreet"
    },
    {
        "id":  "sel-0150",
        "name":  "남현동제2공영주차장",
        "district":  "관악구",
        "address":  "서울특별시 관악구 남현길 22",
        "lat":  37.4756463,
        "lng":  126.9771048,
        "operationHours":  "24시간",
        "fee":  "요금 정보 없음",
        "totalSpaces":  26,
        "availableSpaces":  2,
        "updatedAt":  "2026-07-06T09:28:00+09:00",
        "type":  "offStreet"
    },
    {
        "id":  "sel-0151",
        "name":  "민방위교육장공영주차장",
        "district":  "관악구",
        "address":  "서울특별시 관악구 문성로16다길 135",
        "lat":  37.469348,
        "lng":  126.911268,
        "operationHours":  "24시간",
        "fee":  "기본 5분 50원",
        "totalSpaces":  42,
        "availableSpaces":  0,
        "updatedAt":  "2026-07-06T07:57:00+09:00",
        "type":  "offStreet"
    },
    {
        "id":  "sel-0152",
        "name":  "신원동제2공영주차장",
        "district":  "관악구",
        "address":  "서울특별시 관악구 문성로38길 38-19",
        "lat":  37.47674526,
        "lng":  126.9294757,
        "operationHours":  "24시간",
        "fee":  "요금 정보 없음",
        "totalSpaces":  8,
        "availableSpaces":  7,
        "updatedAt":  "2026-07-06T09:57:00+09:00",
        "type":  "offStreet"
    },
    {
        "id":  "sel-0153",
        "name":  "당곡중공영주차장",
        "district":  "관악구",
        "address":  "서울특별시 관악구 봉천로 13길 101",
        "lat":  37.492357,
        "lng":  126.932678,
        "operationHours":  "24시간",
        "fee":  "기본 5분 50원",
        "totalSpaces":  159,
        "availableSpaces":  11,
        "updatedAt":  "2026-07-06T09:48:00+09:00",
        "type":  "offStreet"
    },
    {
        "id":  "sel-0154",
        "name":  "보라매제1공영주차장",
        "district":  "관악구",
        "address":  "서울특별시 관악구 봉천로 21길 38",
        "lat":  37.488508,
        "lng":  126.934495,
        "operationHours":  "24시간",
        "fee":  "기본 5분 50원",
        "totalSpaces":  131,
        "availableSpaces":  13,
        "updatedAt":  "2026-07-06T07:19:00+09:00",
        "type":  "offStreet"
    },
    {
        "id":  "sel-0155",
        "name":  "서림동제1공영주차장",
        "district":  "관악구",
        "address":  "서울특별시 관악구 서림7길 31",
        "lat":  37.47324878,
        "lng":  126.9407527,
        "operationHours":  "24시간",
        "fee":  "요금 정보 없음",
        "totalSpaces":  12,
        "availableSpaces":  1,
        "updatedAt":  "2026-07-06T07:42:00+09:00",
        "type":  "offStreet"
    },
    {
        "id":  "sel-0156",
        "name":  "대학동제1공영주차장",
        "district":  "관악구",
        "address":  "서울특별시 관악구 신림로11길 109-7",
        "lat":  37.46590801,
        "lng":  126.9392301,
        "operationHours":  "24시간",
        "fee":  "요금 정보 없음",
        "totalSpaces":  5,
        "availableSpaces":  0,
        "updatedAt":  "2026-07-06T07:13:00+09:00",
        "type":  "offStreet"
    },
    {
        "id":  "sel-0157",
        "name":  "원신공영주차장",
        "district":  "관악구",
        "address":  "서울특별시 관악구 양지길 63",
        "lat":  37.470107,
        "lng":  126.929213,
        "operationHours":  "24시간",
        "fee":  "기본 5분 50원",
        "totalSpaces":  172,
        "availableSpaces":  98,
        "updatedAt":  "2026-07-06T07:09:00+09:00",
        "type":  "offStreet"
    },
    {
        "id":  "sel-0158",
        "name":  "인헌동제2공영주차장",
        "district":  "관악구",
        "address":  "서울특별시 관악구 인헌17길 34",
        "lat":  37.47106455,
        "lng":  126.9697838,
        "operationHours":  "24시간",
        "fee":  "요금 정보 없음",
        "totalSpaces":  7,
        "availableSpaces":  3,
        "updatedAt":  "2026-07-06T09:12:00+09:00",
        "type":  "offStreet"
    },
    {
        "id":  "sel-0159",
        "name":  "인헌동제1공영주차장",
        "district":  "관악구",
        "address":  "서울특별시 관악구 인헌길 33-12",
        "lat":  37.473655,
        "lng":  126.9672678,
        "operationHours":  "24시간",
        "fee":  "요금 정보 없음",
        "totalSpaces":  6,
        "availableSpaces":  0,
        "updatedAt":  "2026-07-06T07:42:00+09:00",
        "type":  "offStreet"
    },
    {
        "id":  "sel-0160",
        "name":  "봉림중공영주차장",
        "district":  "관악구",
        "address":  "서울특별시 관악구 장군봉길 72",
        "lat":  37.48119817,
        "lng":  126.9377027,
        "operationHours":  "24시간",
        "fee":  "요금 정보 없음",
        "totalSpaces":  30,
        "availableSpaces":  7,
        "updatedAt":  "2026-07-06T07:15:00+09:00",
        "type":  "offStreet"
    },
    {
        "id":  "sel-0161",
        "name":  "조원동제3공영주차장",
        "district":  "관악구",
        "address":  "서울특별시 관악구 조원로4길 8",
        "lat":  37.48299189,
        "lng":  126.9043887,
        "operationHours":  "24시간",
        "fee":  "요금 정보 없음",
        "totalSpaces":  17,
        "availableSpaces":  10,
        "updatedAt":  "2026-07-06T08:41:00+09:00",
        "type":  "offStreet"
    },
    {
        "id":  "sel-0162",
        "name":  "조원동제1공영주차장",
        "district":  "관악구",
        "address":  "서울특별시 관악구 조원중앙로2길 19",
        "lat":  37.481073,
        "lng":  126.905712,
        "operationHours":  "24시간",
        "fee":  "기본 5분 250원",
        "totalSpaces":  108,
        "availableSpaces":  48,
        "updatedAt":  "2026-07-06T07:46:00+09:00",
        "type":  "offStreet"
    },
    {
        "id":  "sel-0163",
        "name":  "중앙동제1공영주차장",
        "district":  "관악구",
        "address":  "서울특별시 관악구 중앙길 133",
        "lat":  37.48627802,
        "lng":  126.9478758,
        "operationHours":  "24시간",
        "fee":  "요금 정보 없음",
        "totalSpaces":  6,
        "availableSpaces":  1,
        "updatedAt":  "2026-07-06T09:33:00+09:00",
        "type":  "offStreet"
    },
    {
        "id":  "sel-0164",
        "name":  "관악초공영주차장",
        "district":  "관악구",
        "address":  "서울특별시 관악구 청룡4길 49",
        "lat":  37.481026,
        "lng":  126.942554,
        "operationHours":  "24시간",
        "fee":  "기본 5분 250원",
        "totalSpaces":  151,
        "availableSpaces":  0,
        "updatedAt":  "2026-07-06T07:52:00+09:00",
        "type":  "offStreet"
    },
    {
        "id":  "sel-0165",
        "name":  "청룡동제1공영주차장",
        "district":  "관악구",
        "address":  "서울특별시 관악구 청룡9길 21",
        "lat":  37.47875774,
        "lng":  126.9470248,
        "operationHours":  "24시간",
        "fee":  "요금 정보 없음",
        "totalSpaces":  17,
        "availableSpaces":  1,
        "updatedAt":  "2026-07-06T07:41:00+09:00",
        "type":  "offStreet"
    },
    {
        "id":  "sel-0166",
        "name":  "행운동제1공영주차장",
        "district":  "관악구",
        "address":  "서울특별시 관악구 행운4길 21",
        "lat":  37.479744,
        "lng":  126.960471,
        "operationHours":  "24시간",
        "fee":  "기본 5분 150원",
        "totalSpaces":  141,
        "availableSpaces":  7,
        "updatedAt":  "2026-07-06T07:53:00+09:00",
        "type":  "offStreet"
    },
    {
        "id":  "sel-0167",
        "name":  "삼성동제2공영주차장",
        "district":  "관악구",
        "address":  "서울특별시 관악구 호암로16길 36",
        "lat":  37.46411875,
        "lng":  126.933436,
        "operationHours":  "24시간",
        "fee":  "요금 정보 없음",
        "totalSpaces":  70,
        "availableSpaces":  38,
        "updatedAt":  "2026-07-06T07:32:00+09:00",
        "type":  "offStreet"
    },
    {
        "id":  "sel-0168",
        "name":  "광진광장 공영 공영주차장",
        "district":  "광진구",
        "address":  "서울특별시 광진구 광나루로 389",
        "lat":  37.54769328,
        "lng":  127.0732156,
        "operationHours":  "24시간",
        "fee":  "기본 5분 250원 / 추가 5분당 250원",
        "totalSpaces":  33,
        "availableSpaces":  13,
        "updatedAt":  "2026-07-06T08:37:00+09:00",
        "type":  "offStreet"
    },
    {
        "id":  "sel-0169",
        "name":  "구의3동 공영주차장",
        "district":  "광진구",
        "address":  "서울특별시 광진구 광나루로52길 83",
        "lat":  37.53915358,
        "lng":  127.0913608,
        "operationHours":  "24시간",
        "fee":  "기본 5분 200원 / 추가 5분당 200원",
        "totalSpaces":  159,
        "availableSpaces":  52,
        "updatedAt":  "2026-07-06T09:57:00+09:00",
        "type":  "offStreet"
    },
    {
        "id":  "sel-0170",
        "name":  "화양동 공영 공영주차장",
        "district":  "광진구",
        "address":  "서울특별시 광진구 군자로 22",
        "lat":  37.54529787,
        "lng":  127.0711809,
        "operationHours":  "24시간",
        "fee":  "기본 5분 200원 / 추가 5분당 200원",
        "totalSpaces":  44,
        "availableSpaces":  3,
        "updatedAt":  "2026-07-06T09:33:00+09:00",
        "type":  "offStreet"
    },
    {
        "id":  "sel-0171",
        "name":  "자양유수지 공영주차장",
        "district":  "광진구",
        "address":  "서울특별시 광진구 뚝섬로52길 58",
        "lat":  37.52953686,
        "lng":  127.0782846,
        "operationHours":  "24시간",
        "fee":  "기본 5분 200원 / 추가 5분당 200원",
        "totalSpaces":  281,
        "availableSpaces":  262,
        "updatedAt":  "2026-07-06T07:17:00+09:00",
        "type":  "offStreet"
    },
    {
        "id":  "sel-0172",
        "name":  "중곡1동 공영주차장",
        "district":  "광진구",
        "address":  "서울특별시 광진구 면목로 126",
        "lat":  37.56448656,
        "lng":  127.0807575,
        "operationHours":  "24시간",
        "fee":  "기본 5분 200원 / 추가 5분당 200원",
        "totalSpaces":  132,
        "availableSpaces":  0,
        "updatedAt":  "2026-07-06T09:00:00+09:00",
        "type":  "offStreet"
    },
    {
        "id":  "sel-0173",
        "name":  "중곡3동 마을공원 공영주차장",
        "district":  "광진구",
        "address":  "서울특별시 광진구 용마산로33길 25",
        "lat":  37.56991861,
        "lng":  127.0846836,
        "operationHours":  "24시간",
        "fee":  "기본 5분 150원 / 추가 5분당 150원",
        "totalSpaces":  162,
        "availableSpaces":  7,
        "updatedAt":  "2026-07-06T07:35:00+09:00",
        "type":  "offStreet"
    },
    {
        "id":  "sel-0174",
        "name":  "구의2동 주택가공동 주차장",
        "district":  "광진구",
        "address":  "서울특별시 광진구 자양로 307",
        "lat":  37.5529341,
        "lng":  127.0928443,
        "operationHours":  "09:00~18:00",
        "fee":  "기본 5분 150원 / 추가 5분당 150원",
        "totalSpaces":  90,
        "availableSpaces":  13,
        "updatedAt":  "2026-07-06T07:29:00+09:00",
        "type":  "offStreet"
    },
    {
        "id":  "sel-0175",
        "name":  "구의1동 공영주차장",
        "district":  "광진구",
        "address":  "서울특별시 광진구 자양로18길 78",
        "lat":  37.53826965,
        "lng":  127.0878657,
        "operationHours":  "24시간",
        "fee":  "기본 5분 200원 / 추가 5분당 200원",
        "totalSpaces":  172,
        "availableSpaces":  137,
        "updatedAt":  "2026-07-06T07:42:00+09:00",
        "type":  "offStreet"
    },
    {
        "id":  "sel-0176",
        "name":  "능동 공영주차장",
        "district":  "광진구",
        "address":  "서울특별시 광진구 천호대로112길 56",
        "lat":  37.55404255,
        "lng":  127.0802429,
        "operationHours":  "24시간",
        "fee":  "기본 5분 200원 / 추가 5분당 200원",
        "totalSpaces":  77,
        "availableSpaces":  7,
        "updatedAt":  "2026-07-06T07:32:00+09:00",
        "type":  "offStreet"
    },
    {
        "id":  "sel-0177",
        "name":  "구의2동 복합청사 공영주차장",
        "district":  "광진구",
        "address":  "서울특별시 광진구 천호대로136길 55",
        "lat":  37.54707799,
        "lng":  127.090118,
        "operationHours":  "24시간",
        "fee":  "기본 5분 200원 / 추가 5분당 200원",
        "totalSpaces":  81,
        "availableSpaces":  2,
        "updatedAt":  "2026-07-06T08:00:00+09:00",
        "type":  "offStreet"
    },
    {
        "id":  "sel-0178",
        "name":  "구로본동주차장",
        "district":  "구로구",
        "address":  "서울특별시 구로구 가마산로 203",
        "lat":  37.493404,
        "lng":  126.8837451,
        "operationHours":  "24시간",
        "fee":  "기본 60분 3000원",
        "totalSpaces":  34,
        "availableSpaces":  1,
        "updatedAt":  "2026-07-06T09:49:00+09:00",
        "type":  "offStreet"
    },
    {
        "id":  "sel-0179",
        "name":  "대신주차장",
        "district":  "구로구",
        "address":  "서울특별시 구로구 가마산로 246",
        "lat":  37.4946045,
        "lng":  126.8883077,
        "operationHours":  "24시간",
        "fee":  "기본 60분 3000원",
        "totalSpaces":  10,
        "availableSpaces":  0,
        "updatedAt":  "2026-07-06T09:54:00+09:00",
        "type":  "offStreet"
    },
    {
        "id":  "sel-0180",
        "name":  "구로아트밸리 지하 공영주차장",
        "district":  "구로구",
        "address":  "서울특별시 구로구 가마산로25길 21",
        "lat":  37.4971037,
        "lng":  126.889559,
        "operationHours":  "24시간",
        "fee":  "기본 5분 150원 / 추가 5분당 150원",
        "totalSpaces":  243,
        "availableSpaces":  3,
        "updatedAt":  "2026-07-06T07:14:00+09:00",
        "type":  "offStreet"
    },
    {
        "id":  "sel-0181",
        "name":  "AJ파크 주차장(구로점)",
        "district":  "구로구",
        "address":  "서울특별시 구로구 가마산로26길 27",
        "lat":  37.4950983,
        "lng":  126.8918256,
        "operationHours":  "24시간",
        "fee":  "기본 60분 3000원",
        "totalSpaces":  77,
        "availableSpaces":  18,
        "updatedAt":  "2026-07-06T07:40:00+09:00",
        "type":  "offStreet"
    },
    {
        "id":  "sel-0182",
        "name":  "형제주차장",
        "district":  "구로구",
        "address":  "서울특별시 구로구 개봉로60",
        "lat":  37.4911125,
        "lng":  126.8562543,
        "operationHours":  "24시간",
        "fee":  "기본 60분 3000원",
        "totalSpaces":  31,
        "availableSpaces":  11,
        "updatedAt":  "2026-07-06T09:49:00+09:00",
        "type":  "offStreet"
    },
    {
        "id":  "sel-0183",
        "name":  "반도주차장",
        "district":  "구로구",
        "address":  "서울특별시 구로구 경인로 220",
        "lat":  37.4964163,
        "lng":  126.8454184,
        "operationHours":  "24시간",
        "fee":  "기본 60분 3000원",
        "totalSpaces":  8,
        "availableSpaces":  1,
        "updatedAt":  "2026-07-06T09:54:00+09:00",
        "type":  "offStreet"
    },
    {
        "id":  "sel-0184",
        "name":  "오류1동 텃골 공영주차장",
        "district":  "구로구",
        "address":  "서울특별시 구로구 경인로15길 22",
        "lat":  37.4954745,
        "lng":  126.8391873,
        "operationHours":  "24시간",
        "fee":  "기본 5분 100원 / 추가 5분당 100원",
        "totalSpaces":  81,
        "availableSpaces":  11,
        "updatedAt":  "2026-07-06T08:56:00+09:00",
        "type":  "offStreet"
    },
    {
        "id":  "sel-0185",
        "name":  "행복주차장(서림주차장)",
        "district":  "구로구",
        "address":  "서울특별시 구로구 경인로19길 18",
        "lat":  37.4965424,
        "lng":  126.8426725,
        "operationHours":  "24시간",
        "fee":  "기본 60분 3000원",
        "totalSpaces":  12,
        "availableSpaces":  0,
        "updatedAt":  "2026-07-06T07:48:00+09:00",
        "type":  "offStreet"
    },
    {
        "id":  "sel-0186",
        "name":  "오류동역주차장",
        "district":  "구로구",
        "address":  "서울특별시 구로구 경인로20길 13",
        "lat":  37.4943592,
        "lng":  126.8446007,
        "operationHours":  "24시간",
        "fee":  "기본 60분 3000원",
        "totalSpaces":  70,
        "availableSpaces":  3,
        "updatedAt":  "2026-07-06T09:20:00+09:00",
        "type":  "offStreet"
    },
    {
        "id":  "sel-0187",
        "name":  "개봉1동 노외 공영주차장",
        "district":  "구로구",
        "address":  "서울특별시 구로구 경인로33길 51",
        "lat":  37.5002403,
        "lng":  126.8511374,
        "operationHours":  "24시간",
        "fee":  "기본 5분 100원 / 추가 5분당 100원",
        "totalSpaces":  134,
        "availableSpaces":  28,
        "updatedAt":  "2026-07-06T08:10:00+09:00",
        "type":  "offStreet"
    },
    {
        "id":  "sel-0188",
        "name":  "더 스토리Ⅱ 공영주차장",
        "district":  "구로구",
        "address":  "서울특별시 구로구 경인로35길 39",
        "lat":  37.498816,
        "lng":  126.854128,
        "operationHours":  "24시간",
        "fee":  "기본 60분 3000원",
        "totalSpaces":  5,
        "availableSpaces":  4,
        "updatedAt":  "2026-07-06T07:42:00+09:00",
        "type":  "offStreet"
    },
    {
        "id":  "sel-0189",
        "name":  "예원주차장",
        "district":  "구로구",
        "address":  "서울특별시 구로구 고척로 28",
        "lat":  37.4971367,
        "lng":  126.8397491,
        "operationHours":  "24시간",
        "fee":  "기본 60분 3000원",
        "totalSpaces":  12,
        "availableSpaces":  6,
        "updatedAt":  "2026-07-06T07:43:00+09:00",
        "type":  "offStreet"
    },
    {
        "id":  "sel-0190",
        "name":  "영지주차장",
        "district":  "구로구",
        "address":  "서울특별시 구로구 고척로12길 15-22",
        "lat":  37.4996324,
        "lng":  126.8437381,
        "operationHours":  "24시간",
        "fee":  "기본 60분 3000원",
        "totalSpaces":  20,
        "availableSpaces":  9,
        "updatedAt":  "2026-07-06T09:44:00+09:00",
        "type":  "offStreet"
    },
    {
        "id":  "sel-0191",
        "name":  "원광주차장",
        "district":  "구로구",
        "address":  "서울특별시 구로구 고척로3길 19",
        "lat":  37.4960318,
        "lng":  126.8398934,
        "operationHours":  "24시간",
        "fee":  "기본 60분 3000원",
        "totalSpaces":  8,
        "availableSpaces":  0,
        "updatedAt":  "2026-07-06T08:00:00+09:00",
        "type":  "offStreet"
    },
    {
        "id":  "sel-0192",
        "name":  "고척근린공원 지하 공영주차장",
        "district":  "구로구",
        "address":  "서울특별시 구로구 고척로45길 39",
        "lat":  37.5065824,
        "lng":  126.8532783,
        "operationHours":  "24시간",
        "fee":  "기본 5분 150원 / 추가 5분당 150원",
        "totalSpaces":  199,
        "availableSpaces":  0,
        "updatedAt":  "2026-07-06T09:09:00+09:00",
        "type":  "offStreet"
    },
    {
        "id":  "sel-0193",
        "name":  "세창주차장",
        "district":  "구로구",
        "address":  "서울특별시 구로구 구로동로13길 16",
        "lat":  37.487328,
        "lng":  126.8841796,
        "operationHours":  "24시간",
        "fee":  "기본 60분 3000원",
        "totalSpaces":  8,
        "availableSpaces":  5,
        "updatedAt":  "2026-07-06T09:30:00+09:00",
        "type":  "offStreet"
    },
    {
        "id":  "sel-0194",
        "name":  "구로4동 주택가 공동 공영주차장",
        "district":  "구로구",
        "address":  "서울특별시 구로구 구로동로26길 54 (구로동)",
        "lat":  37.4898784,
        "lng":  126.8865593,
        "operationHours":  "24시간",
        "fee":  "기본 5분 100원 / 추가 5분당 100원",
        "totalSpaces":  198,
        "availableSpaces":  46,
        "updatedAt":  "2026-07-06T09:33:00+09:00",
        "type":  "offStreet"
    },
    {
        "id":  "sel-0195",
        "name":  "구로2동 마을공동 공영주차장",
        "district":  "구로구",
        "address":  "서울특별시 구로구 구로동로28길 81",
        "lat":  37.491491,
        "lng":  126.8883001,
        "operationHours":  "24시간",
        "fee":  "기본 5분 100원 / 추가 5분당 100원",
        "totalSpaces":  81,
        "availableSpaces":  46,
        "updatedAt":  "2026-07-06T08:08:00+09:00",
        "type":  "offStreet"
    },
    {
        "id":  "sel-0196",
        "name":  "영일주차장",
        "district":  "구로구",
        "address":  "서울특별시 구로구 구로동로7나길 28",
        "lat":  37.4854528,
        "lng":  126.8830564,
        "operationHours":  "24시간",
        "fee":  "기본 60분 3000원",
        "totalSpaces":  28,
        "availableSpaces":  6,
        "updatedAt":  "2026-07-06T08:02:00+09:00",
        "type":  "offStreet"
    },
    {
        "id":  "sel-0197",
        "name":  "예술인주차장",
        "district":  "구로구",
        "address":  "서울특별시 구로구 구로동로8길 6",
        "lat":  37.4860792,
        "lng":  126.885968,
        "operationHours":  "24시간",
        "fee":  "기본 60분 3000원",
        "totalSpaces":  23,
        "availableSpaces":  13,
        "updatedAt":  "2026-07-06T08:10:00+09:00",
        "type":  "offStreet"
    },
    {
        "id":  "sel-0198",
        "name":  "구로리공원 지하 공영주차장",
        "district":  "구로구",
        "address":  "서울특별시 구로구 구로중앙로 13",
        "lat":  37.4904165,
        "lng":  126.891578,
        "operationHours":  "24시간",
        "fee":  "기본 5분 150원 / 추가 5분당 150원",
        "totalSpaces":  203,
        "availableSpaces":  147,
        "updatedAt":  "2026-07-06T08:28:00+09:00",
        "type":  "offStreet"
    },
    {
        "id":  "sel-0199",
        "name":  "신광주차장",
        "district":  "구로구",
        "address":  "서울특별시 구로구 구로중앙로19가길 7",
        "lat":  37.494328,
        "lng":  126.8889273,
        "operationHours":  "24시간",
        "fee":  "기본 60분 3000원",
        "totalSpaces":  9,
        "availableSpaces":  4,
        "updatedAt":  "2026-07-06T08:23:00+09:00",
        "type":  "offStreet"
    },
    {
        "id":  "sel-0200",
        "name":  "가리봉주차장",
        "district":  "구로구",
        "address":  "서울특별시 구로구 남부순환로105라길 5",
        "lat":  37.4802507,
        "lng":  126.8890205,
        "operationHours":  "24시간",
        "fee":  "기본 60분 3000원",
        "totalSpaces":  10,
        "availableSpaces":  2,
        "updatedAt":  "2026-07-06T07:53:00+09:00",
        "type":  "offStreet"
    },
    {
        "id":  "sel-0201",
        "name":  "개봉역 1번출구 주차장",
        "district":  "구로구",
        "address":  "서울특별시 구로구 남부순환로95길 8-13",
        "lat":  37.4944679,
        "lng":  126.8580288,
        "operationHours":  "24시간",
        "fee":  "기본 60분 3000원",
        "totalSpaces":  6,
        "availableSpaces":  1,
        "updatedAt":  "2026-07-06T09:00:00+09:00",
        "type":  "offStreet"
    },
    {
        "id":  "sel-0202",
        "name":  "현대주차장",
        "district":  "구로구",
        "address":  "서울특별시 구로구 도림로 73",
        "lat":  37.4898542,
        "lng":  126.891512,
        "operationHours":  "24시간",
        "fee":  "기본 60분 3000원",
        "totalSpaces":  55,
        "availableSpaces":  8,
        "updatedAt":  "2026-07-06T08:15:00+09:00",
        "type":  "offStreet"
    },
    {
        "id":  "sel-0203",
        "name":  "구로3동 마을공동 공영주차장",
        "district":  "구로구",
        "address":  "서울특별시 구로구 도림로6길 30",
        "lat":  37.4850219,
        "lng":  126.888408,
        "operationHours":  "24시간",
        "fee":  "기본 5분 50원 / 추가 5분당 50원",
        "totalSpaces":  20,
        "availableSpaces":  19,
        "updatedAt":  "2026-07-06T08:37:00+09:00",
        "type":  "offStreet"
    },
    {
        "id":  "sel-0204",
        "name":  "동일주차장",
        "district":  "구로구",
        "address":  "서울특별시 구로구 디지털로32나길 51",
        "lat":  37.4849029,
        "lng":  126.9003836,
        "operationHours":  "24시간",
        "fee":  "기본 60분 3000원",
        "totalSpaces":  65,
        "availableSpaces":  44,
        "updatedAt":  "2026-07-06T09:17:00+09:00",
        "type":  "offStreet"
    },
    {
        "id":  "sel-0205",
        "name":  "하늘공원 주차장",
        "district":  "구로구",
        "address":  "서울특별시 구로구 벚꽃로 370",
        "lat":  37.4872382,
        "lng":  126.8808103,
        "operationHours":  "24시간",
        "fee":  "기본 5분 150원 / 추가 5분당 150원",
        "totalSpaces":  197,
        "availableSpaces":  176,
        "updatedAt":  "2026-07-06T09:02:00+09:00",
        "type":  "offStreet"
    },
    {
        "id":  "sel-0206",
        "name":  "온수주차장",
        "district":  "구로구",
        "address":  "서울특별시 구로구 부일로 853",
        "lat":  37.4922385,
        "lng":  126.8218571,
        "operationHours":  "24시간",
        "fee":  "기본 60분 3000원",
        "totalSpaces":  15,
        "availableSpaces":  14,
        "updatedAt":  "2026-07-06T08:59:00+09:00",
        "type":  "offStreet"
    },
    {
        "id":  "sel-0207",
        "name":  "형제 주차장",
        "district":  "구로구",
        "address":  "서울특별시 구로구 부일로1길 128-20",
        "lat":  37.4962467,
        "lng":  126.8175052,
        "operationHours":  "24시간",
        "fee":  "기본 60분 3000원",
        "totalSpaces":  6,
        "availableSpaces":  1,
        "updatedAt":  "2026-07-06T08:03:00+09:00",
        "type":  "offStreet"
    },
    {
        "id":  "sel-0208",
        "name":  "신도림역 주차장",
        "district":  "구로구",
        "address":  "서울특별시 구로구 새말로 117-6",
        "lat":  37.5074425,
        "lng":  126.8922692,
        "operationHours":  "24시간",
        "fee":  "기본 60분 3000원",
        "totalSpaces":  52,
        "availableSpaces":  0,
        "updatedAt":  "2026-07-06T08:43:00+09:00",
        "type":  "offStreet"
    },
    {
        "id":  "sel-0209",
        "name":  "구로미래도서관 공영주차장",
        "district":  "구로구",
        "address":  "서울특별시 구로구 새말로 121-15",
        "lat":  37.50786379,
        "lng":  126.8922179,
        "operationHours":  "24시간",
        "fee":  "기본 30분 150원 / 추가 5분당 150원",
        "totalSpaces":  52,
        "availableSpaces":  22,
        "updatedAt":  "2026-07-06T08:06:00+09:00",
        "type":  "offStreet"
    },
    {
        "id":  "sel-0210",
        "name":  "대영주차장",
        "district":  "구로구",
        "address":  "서울특별시 구로구 서해안로 2387",
        "lat":  37.4952151,
        "lng":  126.8494021,
        "operationHours":  "24시간",
        "fee":  "기본 60분 3000원",
        "totalSpaces":  6,
        "availableSpaces":  5,
        "updatedAt":  "2026-07-06T09:15:00+09:00",
        "type":  "offStreet"
    },
    {
        "id":  "sel-0211",
        "name":  "대건주차장",
        "district":  "구로구",
        "address":  "서울특별시 구로구 서해안로 2395",
        "lat":  37.4953011,
        "lng":  126.8502246,
        "operationHours":  "24시간",
        "fee":  "기본 60분 3000원",
        "totalSpaces":  11,
        "availableSpaces":  1,
        "updatedAt":  "2026-07-06T07:57:00+09:00",
        "type":  "offStreet"
    },
    {
        "id":  "sel-0212",
        "name":  "행복3주차장",
        "district":  "구로구",
        "address":  "서울특별시 구로구 서해안로 2395",
        "lat":  37.4953011,
        "lng":  126.8502246,
        "operationHours":  "24시간",
        "fee":  "기본 60분 3000원",
        "totalSpaces":  31,
        "availableSpaces":  24,
        "updatedAt":  "2026-07-06T07:19:00+09:00",
        "type":  "offStreet"
    },
    {
        "id":  "sel-0213",
        "name":  "삼칠주차장",
        "district":  "구로구",
        "address":  "서울특별시 구로구 서해안로26길 11-2",
        "lat":  37.4921597,
        "lng":  126.8425189,
        "operationHours":  "24시간",
        "fee":  "기본 60분 3000원",
        "totalSpaces":  10,
        "availableSpaces":  2,
        "updatedAt":  "2026-07-06T08:56:00+09:00",
        "type":  "offStreet"
    },
    {
        "id":  "sel-0214",
        "name":  "시장주차장",
        "district":  "구로구",
        "address":  "서울특별시 구로구 우마길 19-1",
        "lat":  37.4812705,
        "lng":  126.8888652,
        "operationHours":  "24시간",
        "fee":  "기본 60분 3000원",
        "totalSpaces":  69,
        "availableSpaces":  15,
        "updatedAt":  "2026-07-06T08:47:00+09:00",
        "type":  "offStreet"
    },
    {
        "id":  "sel-0215",
        "name":  "고척1동 마을공동 공영주차장",
        "district":  "구로구",
        "address":  "서울특별시 구로구 중앙로8길 16",
        "lat":  37.5023063,
        "lng":  126.863882,
        "operationHours":  "24시간",
        "fee":  "기본 5분 100원 / 추가 5분당 100원",
        "totalSpaces":  125,
        "availableSpaces":  64,
        "updatedAt":  "2026-07-06T07:45:00+09:00",
        "type":  "offStreet"
    },
    {
        "id":  "sel-0216",
        "name":  "가산디지털서측 공영주차장",
        "district":  "금천구",
        "address":  "서울특별시 금천구 가산디지털1로 226(가산동)",
        "lat":  37.485421,
        "lng":  126.879957,
        "operationHours":  "08:30~19:00",
        "fee":  "추가 5분당 150원",
        "totalSpaces":  151,
        "availableSpaces":  83,
        "updatedAt":  "2026-07-06T08:54:00+09:00",
        "type":  "offStreet"
    },
    {
        "id":  "sel-0217",
        "name":  "가산디지털서측 공영주차장",
        "district":  "금천구",
        "address":  "서울특별시 금천구 가산디지털1로 230",
        "lat":  37.48571424,
        "lng":  126.8796914,
        "operationHours":  "08:30~19:00",
        "fee":  "기본 5분 150원 / 추가 5분당 150원",
        "totalSpaces":  160,
        "availableSpaces":  31,
        "updatedAt":  "2026-07-06T07:15:00+09:00",
        "type":  "offStreet"
    },
    {
        "id":  "sel-0218",
        "name":  "모아래 공영주차장",
        "district":  "금천구",
        "address":  "서울특별시 금천구 가산로3길 92",
        "lat":  37.47253319,
        "lng":  126.8904216,
        "operationHours":  "08:30~19:00",
        "fee":  "기본 5분 250원 / 추가 5분당 250원",
        "totalSpaces":  27,
        "availableSpaces":  0,
        "updatedAt":  "2026-07-06T09:23:00+09:00",
        "type":  "onStreet"
    },
    {
        "id":  "sel-0219",
        "name":  "LG전자 공영주차장",
        "district":  "금천구",
        "address":  "서울특별시 금천구 가산로9길 87 (가산동)",
        "lat":  37.474385,
        "lng":  126.888308,
        "operationHours":  "08:30~19:00",
        "fee":  "추가 5분당 250원",
        "totalSpaces":  37,
        "availableSpaces":  29,
        "updatedAt":  "2026-07-06T09:01:00+09:00",
        "type":  "onStreet"
    },
    {
        "id":  "sel-0220",
        "name":  "은행나무 주차장",
        "district":  "금천구",
        "address":  "서울특별시 금천구 금하로 717(시흥동)",
        "lat":  37.450852,
        "lng":  126.909673,
        "operationHours":  "09:00~20:00",
        "fee":  "기본 30분 1500원",
        "totalSpaces":  5,
        "availableSpaces":  3,
        "updatedAt":  "2026-07-06T09:54:00+09:00",
        "type":  "offStreet"
    },
    {
        "id":  "sel-0221",
        "name":  "길목주차장",
        "district":  "금천구",
        "address":  "서울특별시 금천구 독산로 310(독산동)",
        "lat":  37.474335,
        "lng":  126.903568,
        "operationHours":  "24시간",
        "fee":  "기본 30분 1000원",
        "totalSpaces":  31,
        "availableSpaces":  6,
        "updatedAt":  "2026-07-06T09:45:00+09:00",
        "type":  "offStreet"
    },
    {
        "id":  "sel-0222",
        "name":  "독본 구룡 공영주차장",
        "district":  "금천구",
        "address":  "서울특별시 금천구 독산로107길 13",
        "lat":  37.4778527,
        "lng":  126.9027669,
        "operationHours":  "08:30~19:00",
        "fee":  "기본 5분 65원 / 추가 5분당 65원",
        "totalSpaces":  22,
        "availableSpaces":  0,
        "updatedAt":  "2026-07-06T09:21:00+09:00",
        "type":  "offStreet"
    },
    {
        "id":  "sel-0223",
        "name":  "독산3동 공영주차장",
        "district":  "금천구",
        "address":  "서울특별시 금천구 독산로108길 44 (독산동)",
        "lat":  37.47945,
        "lng":  126.906335,
        "operationHours":  "09:00~18:00",
        "fee":  "추가 5분당 65원",
        "totalSpaces":  50,
        "availableSpaces":  2,
        "updatedAt":  "2026-07-06T07:40:00+09:00",
        "type":  "offStreet"
    },
    {
        "id":  "sel-0224",
        "name":  "삼성 공영주차장",
        "district":  "금천구",
        "address":  "서울특별시 금천구 독산로24마길 30",
        "lat":  37.45458796,
        "lng":  126.9090376,
        "operationHours":  "08:30~19:00",
        "fee":  "기본 5분 65원 / 추가 5분당 65원",
        "totalSpaces":  51,
        "availableSpaces":  29,
        "updatedAt":  "2026-07-06T07:17:00+09:00",
        "type":  "offStreet"
    },
    {
        "id":  "sel-0225",
        "name":  "시흥4동 공영주차장(신흥초교지하)",
        "district":  "금천구",
        "address":  "서울특별시 금천구 독산로36나길 21",
        "lat":  37.45934816,
        "lng":  126.9093508,
        "operationHours":  "08:30~19:00",
        "fee":  "기본 5분 65원 / 추가 5분당 65원",
        "totalSpaces":  124,
        "availableSpaces":  80,
        "updatedAt":  "2026-07-06T07:03:00+09:00",
        "type":  "offStreet"
    },
    {
        "id":  "sel-0226",
        "name":  "시흥4동 효봉 주차장",
        "district":  "금천구",
        "address":  "서울특별시 금천구 독산로50마길 6",
        "lat":  37.46074109,
        "lng":  126.9109725,
        "operationHours":  "08:30~19:00",
        "fee":  "기본 5분 65원 / 추가 5분당 65원",
        "totalSpaces":  69,
        "availableSpaces":  29,
        "updatedAt":  "2026-07-06T07:38:00+09:00",
        "type":  "offStreet"
    },
    {
        "id":  "sel-0227",
        "name":  "제일주차장",
        "district":  "금천구",
        "address":  "서울특별시 금천구 독산로77길 35(독산동)",
        "lat":  37.470116,
        "lng":  126.900616,
        "operationHours":  "24시간",
        "fee":  "기본 60분 2000원 / 추가 30분당 1000원",
        "totalSpaces":  16,
        "availableSpaces":  7,
        "updatedAt":  "2026-07-06T09:07:00+09:00",
        "type":  "offStreet"
    },
    {
        "id":  "sel-0228",
        "name":  "가산중앞 공영주차장",
        "district":  "금천구",
        "address":  "서울특별시 금천구 두산로14길 18 (독산동)",
        "lat":  37.469181,
        "lng":  126.894829,
        "operationHours":  "08:30~19:00",
        "fee":  "추가 5분당 250원",
        "totalSpaces":  19,
        "availableSpaces":  4,
        "updatedAt":  "2026-07-06T08:28:00+09:00",
        "type":  "onStreet"
    },
    {
        "id":  "sel-0229",
        "name":  "사조산업 공영주차장",
        "district":  "금천구",
        "address":  "서울특별시 금천구 두산로7길 13 (독산동)",
        "lat":  37.471477,
        "lng":  126.891326,
        "operationHours":  "08:30~19:00",
        "fee":  "추가 5분당 250원",
        "totalSpaces":  42,
        "availableSpaces":  0,
        "updatedAt":  "2026-07-06T08:14:00+09:00",
        "type":  "onStreet"
    },
    {
        "id":  "sel-0230",
        "name":  "사조냉장 옆(노상) 공영주차장",
        "district":  "금천구",
        "address":  "서울특별시 금천구 두산로7길 16",
        "lat":  37.47115076,
        "lng":  126.8919782,
        "operationHours":  "08:30~19:00",
        "fee":  "기본 5분 250원 / 추가 5분당 250원",
        "totalSpaces":  27,
        "availableSpaces":  11,
        "updatedAt":  "2026-07-06T09:40:00+09:00",
        "type":  "onStreet"
    },
    {
        "id":  "sel-0231",
        "name":  "독산1동 공영주차장",
        "district":  "금천구",
        "address":  "서울특별시 금천구 범안로12가길 65 (독산동)",
        "lat":  37.464941,
        "lng":  126.894882,
        "operationHours":  "09:00~18:00",
        "fee":  "추가 5분당 65원",
        "totalSpaces":  66,
        "availableSpaces":  32,
        "updatedAt":  "2026-07-06T08:39:00+09:00",
        "type":  "offStreet"
    },
    {
        "id":  "sel-0232",
        "name":  "범일운수 공영주차장",
        "district":  "금천구",
        "address":  "서울특별시 금천구 범안로9길 23 (독산동)",
        "lat":  37.467728,
        "lng":  126.890032,
        "operationHours":  "08:30~19:00",
        "fee":  "추가 5분당 250원",
        "totalSpaces":  36,
        "availableSpaces":  0,
        "updatedAt":  "2026-07-06T09:32:00+09:00",
        "type":  "onStreet"
    },